station_id,start_date,end_date,latitude,longitude,height,name,state
00044,1969-01-01T00:00:00.000000+0000,2024-03-23T00:00:00.000000+0000,52.9336,8.2370,44.0000,Großenkneten,Niedersachsen
00073,1959-03-01T00:00:00.000000+0000,2024-03-23T00:00:00.000000+0000,48.6183,13.0620,374.0000,Aldersbach-Kramersepp,Bayern
00078,1961-01-01T00:00:00.000000+0000,2024-03-23T00:00:00.000000+0000,52.4853,7.9125,64.0000,Alfhausen,Niedersachsen
00091,1978-11-01T00:00:00.000000+0000,2024-03-23T00:00:00.000000+0000,50.7446,9.3450,300.0000,Alsfeld-Eifa,Hessen
00096,2019-04-09T00:00:00.000000+0000,2024-03-23T00:00:00.000000+0000,52.9437,12.8518,50.0000,Neuruppin-Alt Ruppin,Brandenburg
00102,1998-01-01T00:00:00.000000+0000,2024-03-23T00:00:00.000000+0000,53.8633,8.1275,0.0000,Leuchtturm Alte Weser,Niedersachsen
00131,2004-11-01T00:00:00.000000+0000,2024-03-23T00:00:00.000000+0000,51.0881,12.9326,296.0000,Geringswalde-Altgeringswalde,Sachsen
00142,1955-01-01T00:00:00.000000+0000,2024-03-23T00:00:00.000000+0000,48.4060,11.3117,511.0000,Altomünster-Maisbrunn,Bayern
00150,1951-01-01T00:00:00.000000+0000,2024-03-23T00:00:00.000000+0000,49.7273,8.1164,215.0000,Alzey,Rheinland-Pfalz
00151,1947-01-01T00:00:00.000000+0000,2024-03-23T00:00:00.000000+0000,49.4691,11.8546,382.0000,Amberg-Unterammersricht,Bayern
00154,1994-01-01T00:00:00.000000+0000,2024-03-23T00:00:00.000000+0000,48.0197,12.2925,516.0000,Amerang-Pfaffing,Bayern
00161,1980-12-01T00:00:00.000000+0000,2024-03-23T00:00:00.000000+0000,50.4237,7.4202,75.0000,Andernach,Rheinland-Pfalz
00164,1908-05-17T00:00:00.000000+0000,2024-03-23T00:00:00.000000+0000,53.0316,13.9908,54.0000,Angermünde,Brandenburg
00167,2004-09-01T00:00:00.000000+0000,2024-03-23T00:00:00.000000+0000,53.8409,13.6854,11.0000,Anklam,Mecklenburg-Vorpommern
00183,1947-01-01T00:00:00.000000+0000,2024-03-23T00:00:00.000000+0000,54.6791,13.4344,42.0000,Arkona,Mecklenburg-Vorpommern
00191,1986-04-01T00:00:00.000000+0000,2024-03-23T00:00:00.000000+0000,49.9694,9.9114,217.0000,Arnstein-Müdesheim,Bayern
00198,1954-01-01T00:00:00.000000+0000,2024-03-23T00:00:00.000000+0000,51.3744,11.2920,164.0000,Artern,Thüringen
00217,1941-01-01T00:00:00.000000+0000,2024-03-23T00:00:00.000000+0000,47.8774,11.3643,670.0000,Attenkam,Bayern
00222,1977-01-01T00:00:00.000000+0000,2024-03-23T00:00:00.000000+0000,50.5908,12.7139,393.0000,Aue,Sachsen
00232,1947-01-01T00:00:00.000000+0000,2024-03-23T00:00:00.000000+0000,48.4253,10.9417,462.0000,Augsburg,Bayern
00257,1949-01-01T00:00:00.000000+0000,2024-03-23T00:00:00.000000+0000,48.7270,8.2457,240.0000,Baden-Baden-Geroldsau,Baden-Württemberg
00259,1947-01-01T00:00:00.000000+0000,2024-03-23T00:00:00.000000+0000,47.8064,7.6387,275.0000,Müllheim,Baden-Württemberg
00282,1949-01-01T00:00:00.000000+0000,2024-03-23T00:00:00.000000+0000,49.8743,10.9206,240.0000,Bamberg,Bayern
00294,1992-02-01T00:00:00.000000+0000,2024-03-23T00:00:00.000000+0000,52.3199,9.4300,110.0000,Barsinghausen-Hohenbostel,Niedersachsen
00298,1947-01-01T00:00:00.000000+0000,2024-03-23T00:00:00.000000+0000,54.3405,12.7108,3.0000,Barth,Mecklenburg-Vorpommern
00303,1993-09-06T00:00:00.000000+0000,2024-03-23T00:00:00.000000+0000,52.0613,13.4997,55.0000,Baruth,Brandenburg
00314,1936-01-01T00:00:00.000000+0000,2024-03-23T00:00:00.000000+0000,51.1604,14.5042,234.0000,"Kubschütz, Kr. Bautzen",Sachsen
00320,1879-01-01T00:00:00.000000+0000,2024-03-23T00:00:00.000000+0000,49.9666,11.5198,350.0000,Heinersreuth-Vollhof,Bayern
00330,1937-01-01T00:00:00.000000+0000,2024-03-23T00:00:00.000000+0000,49.5617,8.9673,455.0000,Oberzent-Beerfelden,Hessen
00342,2010-12-01T00:00:00.000000+0000,2024-03-23T00:00:00.000000+0000,52.3170,8.1694,103.0000,Belm,Niedersachsen
00377,1947-01-01T00:00:00.000000+0000,2024-03-23T00:00:00.000000+0000,49.1070,7.9967,210.0000,"Bergzabern, Bad",Rheinland-Pfalz
00379,1954-07-01T00:00:00.000000+0000,2024-03-23T00:00:00.000000+0000,50.9075,11.2665,304.0000,"Berka, Bad (Flugplatz)",Thüringen
00390,1986-12-01T00:00:00.000000+0000,2024-03-23T00:00:00.000000+0000,50.9837,8.3683,610.0000,"Berleburg, Bad-Stünzel",Nordrhein-Westfalen
00400,1961-01-01T00:00:00.000000+0000,2024-03-23T00:00:00.000000+0000,52.6310,13.5021,60.0000,Berlin-Buch,Berlin
00403,1950-01-01T00:00:00.000000+0000,2024-03-23T00:00:00.000000+0000,52.4537,13.3017,51.0000,Berlin-Dahlem (FU),Berlin
00420,1993-05-01T00:00:00.000000+0000,2023-08-06T00:00:00.000000+0000,52.5447,13.5598,61.0000,Berlin-Marzahn,Berlin
00427,1957-01-01T00:00:00.000000+0000,2024-03-23T00:00:00.000000+0000,52.3807,13.5306,46.0000,Berlin Brandenburg,Brandenburg
00430,1963-01-01T00:00:00.000000+0000,2021-05-05T00:00:00.000000+0000,52.5644,13.3088,36.0000,Berlin-Tegel,Berlin
00433,1948-01-01T00:00:00.000000+0000,2024-03-23T00:00:00.000000+0000,52.4676,13.4020,48.0000,Berlin-Tempelhof,Berlin
00445,1898-01-01T00:00:00.000000+0000,2024-03-23T00:00:00.000000+0000,51.8218,11.7110,85.0000,Bernburg/Saale (Nord),Sachsen-Anhalt
00460,1951-01-01T00:00:00.000000+0000,2024-03-23T00:00:00.000000+0000,49.2641,6.6868,362.0000,Berus,Saarland
00535,1947-01-01T00:00:00.000000+0000,2024-03-23T00:00:00.000000+0000,50.0372,7.3079,417.0000,Blankenrath,Rheinland-Pfalz
00555,1940-01-01T00:00:00.000000+0000,2024-03-23T00:00:00.000000+0000,51.5026,7.2289,110.0000,Bochum,Nordrhein-Westfalen
00591,1947-01-01T00:00:00.000000+0000,2024-03-23T00:00:00.000000+0000,53.3911,10.6878,45.0000,Boizenburg,Mecklenburg-Vorpommern
00596,1947-01-01T00:00:00.000000+0000,2024-03-23T00:00:00.000000+0000,54.0027,11.1908,15.0000,Boltenhagen,Mecklenburg-Vorpommern
00603,1986-08-01T00:00:00.000000+0000,2024-03-23T00:00:00.000000+0000,50.7293,7.2040,147.0000,Königswinter-Heiderhof,Nordrhein-Westfalen
00617,2004-06-01T00:00:00.000000+0000,2024-03-23T00:00:00.000000+0000,51.8730,6.8863,47.0000,Borken in Westfalen,Nordrhein-Westfalen
00656,1931-01-01T00:00:00.000000+0000,2024-03-23T00:00:00.000000+0000,51.7234,10.6021,607.0000,Braunlage,Niedersachsen
00662,1961-01-01T00:00:00.000000+0000,2024-03-23T00:00:00.000000+0000,52.2915,10.4464,81.0000,Braunschweig,Niedersachsen
00691,1890-01-01T00:00:00.000000+0000,2024-03-23T00:00:00.000000+0000,53.0451,8.7981,4.0000,Bremen,Bremen
00701,1949-01-01T00:00:00.000000+0000,2024-03-23T00:00:00.000000+0000,53.5332,8.5761,7.0000,Bremerhaven,Bremen
00704,1979-04-01T00:00:00.000000+0000,2024-03-23T00:00:00.000000+0000,53.4451,9.1390,11.0000,Bremervörde,Niedersachsen
00722,1896-01-01T00:00:00.000000+0000,2024-03-23T00:00:00.000000+0000,51.7986,10.6183,1135.0000,Brocken,Sachsen-Anhalt
00755,1935-01-01T00:00:00.000000+0000,2024-03-23T00:00:00.000000+0000,49.5182,9.3213,340.0000,"Buchen, Kr. Neckar-Odenwald",Baden-Württemberg
00757,1990-10-01T00:00:00.000000+0000,2024-03-23T00:00:00.000000+0000,47.9625,7.9983,445.0000,Buchenbach,Baden-Württemberg
00760,1976-06-01T00:00:00.000000+0000,2024-03-23T00:00:00.000000+0000,53.3629,9.9435,83.0000,Rosengarten-Klecken,Niedersachsen
00817,1952-10-01T00:00:00.000000+0000,2024-03-23T00:00:00.000000+0000,51.0306,8.8146,293.0000,Burgwald-Bottendorf,Hessen
00840,1989-12-01T00:00:00.000000+0000,2024-03-23T00:00:00.000000+0000,50.4313,12.6114,895.0000,Carlsfeld,Sachsen
00853,1882-01-01T00:00:00.000000+0000,2024-03-23T00:00:00.000000+0000,50.7913,12.8720,416.0000,Chemnitz,Sachsen
00856,1998-01-01T00:00:00.000000+0000,2024-03-23T00:00:00.000000+0000,47.8843,12.5404,551.0000,Chieming,Bayern
00860,2023-10-01T00:00:00.000000+0000,2024-03-23T00:00:00.000000+0000,52.2731,10.0163,80.0000,Algermissen-Groß Lobke,Niedersachsen
00867,1947-01-01T00:00:00.000000+0000,2024-03-23T00:00:00.000000+0000,50.3066,10.9679,344.0000,Lautertal-Oberlauter,Bayern
00880,1887-01-01T00:00:00.000000+0000,2024-03-23T00:00:00.000000+0000,51.7759,14.3168,69.0000,Cottbus,Brandenburg
00891,1946-01-01T00:00:00.000000+0000,2024-03-23T00:00:00.000000+0000,53.8713,8.7060,5.0000,Cuxhaven,Niedersachsen
00896,1949-07-01T00:00:00.000000+0000,2024-03-23T00:00:00.000000+0000,51.0778,10.8619,170.0000,Dachwig,Thüringen
00917,1995-08-01T00:00:00.000000+0000,2024-03-23T00:00:00.000000+0000,49.8809,8.6779,162.0000,Darmstadt,Hessen
00953,1950-08-01T00:00:00.000000+0000,2024-03-23T00:00:00.000000+0000,49.7619,7.0542,481.0000,Deuselbach,Rheinland-Pfalz
00954,1998-01-01T00:00:00.000000+0000,2024-03-23T00:00:00.000000+0000,54.1796,7.4587,0.0000,UFS Deutsche Bucht,Hamburg
00963,1952-09-01T00:00:00.000000+0000,2024-03-23T00:00:00.000000+0000,52.5881,8.3424,38.0000,Diepholz,Niedersachsen
00979,1947-08-01T00:00:00.000000+0000,2023-03-13T00:00:00.000000+0000,50.7364,8.2672,314.0000,Dillenburg,Hessen
00983,2006-12-01T00:00:00.000000+0000,2024-03-23T00:00:00.000000+0000,48.5562,10.5599,419.0000,Dillingen/Donau-Fristingen,Bayern
00991,1954-09-01T00:00:00.000000+0000,2024-03-23T00:00:00.000000+0000,50.9116,13.7087,359.0000,Dippoldiswalde-Reinberg,Sachsen
01001,1948-07-01T00:00:00.000000+0000,2024-03-23T00:00:00.000000+0000,51.6451,13.5747,97.0000,Doberlug-Kirchhain,Brandenburg
01048,1934-01-01T00:00:00.000000+0000,2024-03-23T00:00:00.000000+0000,51.1278,13.7543,228.0000,Dresden-Klotzsche,Sachsen
01050,1949-01-01T00:00:00.000000+0000,2024-03-23T00:00:00.000000+0000,51.0221,13.8470,112.0000,Dresden-Hosterwitz,Sachsen
01051,1936-01-01T00:00:00.000000+0000,2023-10-03T00:00:00.000000+0000,51.0249,13.7750,119.0000,Dresden-Strehlen,Sachsen
01052,1993-05-01T00:00:00.000000+0000,2024-03-23T00:00:00.000000+0000,52.2174,12.1641,80.0000,Möckern-Drewitz,Sachsen-Anhalt
01072,1952-01-01T00:00:00.000000+0000,2024-03-23T00:00:00.000000+0000,49.4719,8.1929,107.0000,"Dürkheim, Bad",Rheinland-Pfalz
01078,1952-01-01T00:00:00.000000+0000,2024-03-23T00:00:00.000000+0000,51.2960,6.7686,37.0000,Düsseldorf,Nordrhein-Westfalen
01103,1978-01-01T00:00:00.000000+0000,2024-03-23T00:00:00.000000+0000,48.1003,11.9872,592.0000,Ebersberg-Halbing,Bayern
01107,1963-01-01T00:00:00.000000+0000,2024-03-23T00:00:00.000000+0000,49.8520,10.4991,346.0000,Ebrach,Bayern
01161,1955-01-01T00:00:00.000000+0000,2024-03-23T00:00:00.000000+0000,48.8777,11.2349,384.0000,Eichstätt-Landershofen,Bayern
01197,1941-01-01T00:00:00.000000+0000,2024-03-23T00:00:00.000000+0000,48.9895,10.1312,463.0000,Ellwangen-Rindelbach,Baden-Württemberg
01200,1998-01-01T00:00:00.000000+0000,2024-03-23T00:00:00.000000+0000,54.0691,9.0105,3.0000,Elpersbüttel,Schleswig-Holstein
01207,1948-06-01T00:00:00.000000+0000,2024-03-23T00:00:00.000000+0000,50.2705,12.2742,558.0000,"Elster, Bad-Sohl",Sachsen
01214,1987-11-01T00:00:00.000000+0000,2024-03-23T00:00:00.000000+0000,48.2012,8.1088,431.0000,Elzach-Fisnacht,Baden-Württemberg
01224,1975-11-01T00:00:00.000000+0000,2024-03-23T00:00:00.000000+0000,48.1378,7.8351,201.0000,Emmendingen-Mundingen,Baden-Württemberg
01228,2000-07-01T00:00:00.000000+0000,2024-03-23T00:00:00.000000+0000,54.1651,6.3460,0.0000,UFS TW Ems,Hamburg
01246,2015-08-01T00:00:00.000000+0000,2024-03-23T00:00:00.000000+0000,51.8418,8.0607,104.0000,Ennigerloh-Ostenfelde,Nordrhein-Westfalen
01255,2002-12-01T00:00:00.000000+0000,2024-03-23T00:00:00.000000+0000,49.1661,8.8483,226.0000,Eppingen-Elsenz,Baden-Württemberg
01262,1992-05-17T00:00:00.000000+0000,2024-03-23T00:00:00.000000+0000,48.3477,11.8134,446.0000,München-Flughafen,Bayern
01266,1964-05-01T00:00:00.000000+0000,2024-03-23T00:00:00.000000+0000,54.2992,9.3162,18.0000,Erfde,Schleswig-Holstein
01270,1951-01-01T00:00:00.000000+0000,2024-03-23T00:00:00.000000+0000,50.9829,10.9608,316.0000,Erfurt-Weimar,Thüringen
01279,1949-01-01T00:00:00.000000+0000,2024-03-23T00:00:00.000000+0000,49.6497,11.0075,268.0000,Möhrendorf-Kleinseebach,Bayern
01297,1947-09-01T00:00:00.000000+0000,2024-03-23T00:00:00.000000+0000,51.2041,10.0138,156.0000,Eschwege,Hessen
01300,1938-01-01T00:00:00.000000+0000,2024-03-23T00:00:00.000000+0000,51.2540,8.1565,351.0000,Eslohe,Nordrhein-Westfalen
01303,1935-01-01T00:00:00.000000+0000,2024-03-23T00:00:00.000000+0000,51.4041,6.9677,150.0000,Essen-Bredeney,Nordrhein-Westfalen
01327,1937-01-01T00:00:00.000000+0000,2024-03-23T00:00:00.000000+0000,50.7119,6.7905,147.0000,Weilerswist-Lommersum,Nordrhein-Westfalen
01332,1966-07-01T00:00:00.000000+0000,2024-03-23T00:00:00.000000+0000,48.4832,12.7241,471.0000,"Falkenberg,Kr.Rottal-Inn",Bayern
01346,1945-01-01T00:00:00.000000+0000,2024-03-23T00:00:00.000000+0000,47.8748,8.0038,1486.0000,Feldberg/Schwarzwald,Baden-Württemberg
01357,1948-01-01T00:00:00.000000+0000,2024-03-23T00:00:00.000000+0000,49.9807,11.8376,655.0000,Fichtelberg/Oberfranken-Hüttstadl,Bayern
01358,1890-08-01T00:00:00.000000+0000,2024-03-23T00:00:00.000000+0000,50.4283,12.9536,1213.0000,Fichtelberg,Sachsen
01411,1949-10-01T00:00:00.000000+0000,2024-03-23T00:00:00.000000+0000,50.5309,10.0479,747.0000,Birx/Rhön,Thüringen
01420,1949-01-01T00:00:00.000000+0000,2024-03-23T00:00:00.000000+0000,50.0259,8.5213,100.0000,Frankfurt/Main,Hessen
01424,1985-11-01T00:00:00.000000+0000,2024-03-23T00:00:00.000000+0000,50.1269,8.6694,121.0000,Frankfurt/Main-Westend,Hessen
01443,1874-01-01T00:00:00.000000+0000,2024-03-23T00:00:00.000000+0000,48.0232,7.8343,237.0000,Freiburg,Baden-Württemberg
01451,1970-11-01T00:00:00.000000+0000,2024-03-23T00:00:00.000000+0000,53.8277,9.2493,2.0000,Freiburg/Elbe,Niedersachsen
01468,1949-01-01T00:00:00.000000+0000,2024-03-23T00:00:00.000000+0000,48.4538,8.4090,797.0000,Freudenstadt,Baden-Württemberg
01503,1947-02-01T00:00:00.000000+0000,2024-03-23T00:00:00.000000+0000,53.0643,7.9020,6.0000,Friesoythe-Altenoythe,Niedersachsen
01526,1885-01-01T00:00:00.000000+0000,2024-03-23T00:00:00.000000+0000,50.5668,9.6532,242.0000,Fulda-Horas,Hessen
01544,1947-01-01T00:00:00.000000+0000,2024-03-23T00:00:00.000000+0000,52.5129,11.3942,47.0000,Gardelegen,Sachsen-Anhalt
01550,1936-01-01T00:00:00.000000+0000,2024-03-23T00:00:00.000000+0000,47.4830,11.0621,719.0000,Garmisch-Partenkirchen,Bayern
01580,1884-07-01T00:00:00.000000+0000,2024-03-23T00:00:00.000000+0000,49.9859,7.9548,111.0000,Geisenheim,Hessen
01584,2009-06-01T00:00:00.000000+0000,2024-03-23T00:00:00.000000+0000,47.9242,8.6474,673.0000,Geisingen,Baden-Württemberg
01587,1998-01-01T00:00:00.000000+0000,2024-03-23T00:00:00.000000+0000,48.9481,11.4289,536.0000,Gelbelsee,Bayern
01590,1963-10-01T00:00:00.000000+0000,2024-03-23T00:00:00.000000+0000,51.4942,6.2463,37.0000,Geldern-Walbeck,Nordrhein-Westfalen
01602,1970-01-01T00:00:00.000000+0000,2024-03-23T00:00:00.000000+0000,48.4330,7.9930,177.0000,Ohlsbach,Baden-Württemberg
01605,1953-01-01T00:00:00.000000+0000,2024-03-23T00:00:00.000000+0000,52.3875,12.1602,35.0000,Genthin,Sachsen-Anhalt
01612,1952-01-01T00:00:00.000000+0000,2024-03-23T00:00:00.000000+0000,50.8812,12.1289,311.0000,Gera-Leumnitz,Thüringen
01639,1939-01-01T00:00:00.000000+0000,2024-03-23T00:00:00.000000+0000,50.6017,8.6439,203.0000,Gießen/Wettenberg,Hessen
01645,1949-01-01T00:00:00.000000+0000,2024-03-23T00:00:00.000000+0000,50.9656,9.0500,340.0000,Gilserberg-Moischeid,Hessen
01684,1860-01-01T00:00:00.000000+0000,2024-03-23T00:00:00.000000+0000,51.1621,14.9506,239.0000,Görlitz,Sachsen
01691,1927-01-01T00:00:00.000000+0000,2024-03-23T00:00:00.000000+0000,51.5002,9.9507,167.0000,Göttingen,Niedersachsen
01694,1947-01-01T00:00:00.000000+0000,2024-03-23T00:00:00.000000+0000,53.6058,12.1034,59.0000,Goldberg,Mecklenburg-Vorpommern
01721,1991-01-01T00:00:00.000000+0000,2024-03-23T00:00:00.000000+0000,49.6640,11.2239,506.0000,Gräfenberg-Kasberg,Bayern
01735,1995-12-01T00:00:00.000000+0000,2024-03-23T00:00:00.000000+0000,48.7894,13.6290,628.0000,Grainet-Rehberg,Bayern
01736,1951-01-01T00:00:00.000000+0000,2024-03-23T00:00:00.000000+0000,53.5731,10.6797,26.0000,Grambek,Schleswig-Holstein
01757,1898-03-01T00:00:00.000000+0000,2024-03-23T00:00:00.000000+0000,54.0967,13.4056,2.0000,Greifswald,Mecklenburg-Vorpommern
01759,1947-08-01T00:00:00.000000+0000,2024-03-23T00:00:00.000000+0000,54.2437,13.9102,12.0000,Greifswalder Oie,Mecklenburg-Vorpommern
01766,1982-01-01T00:00:00.000000+0000,2024-03-23T00:00:00.000000+0000,52.1344,7.6969,48.0000,Münster/Osnabrück,Nordrhein-Westfalen
01792,2020-08-14T00:00:00.000000+0000,2024-03-23T00:00:00.000000+0000,52.7553,7.4815,27.0000,Groß Berßen,Niedersachsen
01803,1967-01-01T00:00:00.000000+0000,2024-03-23T00:00:00.000000+0000,54.0714,12.3238,35.0000,Groß Lüsewitz,Mecklenburg-Vorpommern
01832,1982-11-01T00:00:00.000000+0000,2024-03-23T00:00:00.000000+0000,49.1129,13.1338,1436.0000,Großer Arber,Bayern
01863,1995-03-01T00:00:00.000000+0000,2024-03-23T00:00:00.000000+0000,50.2667,9.1854,258.0000,Gründau-Breitenborn,Hessen
01869,1973-01-01T00:00:00.000000+0000,2024-03-23T00:00:00.000000+0000,53.3154,13.9339,56.0000,Grünow,Brandenburg
01886,2009-11-26T00:00:00.000000+0000,2024-03-23T00:00:00.000000+0000,48.4878,10.2608,444.0000,Günzburg,Bayern
01964,1952-01-01T00:00:00.000000+0000,2024-03-09T00:00:00.000000+0000,49.9445,6.3821,328.0000,Olsdorf,Rheinland-Pfalz
01975,1936-01-01T00:00:00.000000+0000,2024-03-23T00:00:00.000000+0000,53.6332,9.9881,11.0000,Hamburg-Fuhlsbüttel,Hamburg
01981,1962-05-01T00:00:00.000000+0000,2024-03-23T00:00:00.000000+0000,53.4776,9.8957,4.0000,Hamburg-Neuwiedenthal,Hamburg
02014,1936-01-01T00:00:00.000000+0000,2024-03-23T00:00:00.000000+0000,52.4644,9.6779,55.0000,Hannover,Niedersachsen
02023,1998-01-01T00:00:00.000000+0000,2024-03-23T00:00:00.000000+0000,48.7918,10.7062,501.0000,Harburg,Bayern
02039,1936-01-01T00:00:00.000000+0000,2024-03-23T00:00:00.000000+0000,51.9002,10.5699,203.0000,"Harzburg, Bad",Niedersachsen
02044,1945-05-01T00:00:00.000000+0000,2024-03-23T00:00:00.000000+0000,51.6520,11.1366,404.0000,Harzgerode,Sachsen-Anhalt
02074,1947-01-01T00:00:00.000000+0000,2024-03-23T00:00:00.000000+0000,48.3752,8.9800,518.0000,Hechingen,Baden-Württemberg
02110,1963-01-01T00:00:00.000000+0000,2024-03-23T00:00:00.000000+0000,51.0411,6.1042,57.0000,Heinsberg-Schleiden,Nordrhein-Westfalen
02115,1952-05-01T00:00:00.000000+0000,2024-03-23T00:00:00.000000+0000,54.1750,7.8920,4.0000,Helgoland,Schleswig-Holstein
02171,1949-01-01T00:00:00.000000+0000,2024-03-23T00:00:00.000000+0000,50.8520,9.7377,272.0000,"Hersfeld, Bad",Hessen
02174,1991-10-01T00:00:00.000000+0000,2024-03-23T00:00:00.000000+0000,51.6255,10.3695,236.0000,Herzberg,Niedersachsen
02201,1931-04-14T00:00:00.000000+0000,2024-03-23T00:00:00.000000+0000,54.5750,13.1044,1.0000,Hiddensee-Vitte,Mecklenburg-Vorpommern
02211,1937-01-01T00:00:00.000000+0000,2024-03-23T00:00:00.000000+0000,50.7370,7.6525,295.0000,Hilgenroth,Rheinland-Pfalz
02252,1947-01-01T00:00:00.000000+0000,2024-03-23T00:00:00.000000+0000,50.8992,14.7456,271.0000,Bertsdorf-Hörnitz,Sachsen
02261,1947-01-01T00:00:00.000000+0000,2024-03-23T00:00:00.000000+0000,50.3123,11.8760,565.0000,Hof,Bayern
02290,1781-01-01T00:00:00.000000+0000,2024-03-23T00:00:00.000000+0000,47.8009,11.0108,977.0000,Hohenpeißenberg,Bayern
02306,1977-11-01T00:00:00.000000+0000,2024-03-23T00:00:00.000000+0000,54.3194,10.6732,8.0000,Hohwacht,Schleswig-Holstein
02319,1982-12-01T00:00:00.000000+0000,2024-03-23T00:00:00.000000+0000,47.8823,11.6961,685.0000,Holzkirchen,Bayern
02323,1951-01-01T00:00:00.000000+0000,2024-03-23T00:00:00.000000+0000,51.8529,9.4953,110.0000,"Bevern, Kr. Holzminden",Niedersachsen
02362,1982-10-01T00:00:00.000000+0000,2024-03-23T00:00:00.000000+0000,50.5651,7.4843,328.0000,Hümmerich,Rheinland-Pfalz
02429,1988-03-01T00:00:00.000000+0000,2024-03-23T00:00:00.000000+0000,53.9897,9.5697,20.0000,Itzehoe,Schleswig-Holstein
02444,1821-01-01T00:00:00.000000+0000,2024-03-23T00:00:00.000000+0000,50.9251,11.5830,155.0000,Jena (Sternwarte),Thüringen
02480,1947-01-01T00:00:00.000000+0000,2024-03-23T00:00:00.000000+0000,50.0643,8.9930,108.0000,Kahl/Main,Bayern
02483,1926-11-01T00:00:00.000000+0000,2024-03-23T00:00:00.000000+0000,51.1803,8.4891,839.0000,Kahler Asten,Nordrhein-Westfalen
02485,2011-05-01T00:00:00.000000+0000,2024-03-23T00:00:00.000000+0000,48.9170,9.6871,489.0000,Kaisersbach-Cronhütte,Baden-Württemberg
02486,1901-01-01T00:00:00.000000+0000,2024-03-23T00:00:00.000000+0000,49.4262,7.7557,271.0000,Kaiserslautern,Rheinland-Pfalz
02497,1947-01-01T00:00:00.000000+0000,2024-03-23T00:00:00.000000+0000,50.5014,6.5264,505.0000,Kall-Sistig,Nordrhein-Westfalen
02559,1952-01-01T00:00:00.000000+0000,2024-03-23T00:00:00.000000+0000,47.7233,10.3348,705.0000,Kempten,Bayern
02564,1974-01-01T00:00:00.000000+0000,2024-03-23T00:00:00.000000+0000,54.3776,10.1424,28.0000,Kiel-Holtenau,Schleswig-Holstein
02575,2007-05-22T00:00:00.000000+0000,2024-03-23T00:00:00.000000+0000,49.1804,9.9800,432.0000,Kirchberg/Jagst-Herboldshausen,Baden-Württemberg
02578,1865-01-01T00:00:00.000000+0000,2024-03-23T00:00:00.000000+0000,53.9995,11.4341,14.0000,Kirchdorf/Poel,Mecklenburg-Vorpommern
02597,1946-01-01T00:00:00.000000+0000,2024-03-23T00:00:00.000000+0000,50.2240,10.0792,282.0000,"Kissingen, Bad",Bayern
02600,1982-11-01T00:00:00.000000+0000,2024-03-23T00:00:00.000000+0000,49.7363,10.1781,193.0000,Kitzingen,Bayern
02601,1936-01-01T00:00:00.000000+0000,2024-03-23T00:00:00.000000+0000,50.2218,8.4469,822.0000,Kleiner Feldberg/Taunus,Hessen
02618,1958-01-01T00:00:00.000000+0000,2024-03-23T00:00:00.000000+0000,50.8458,10.4803,732.0000,Kleiner Inselsberg,Thüringen
02627,1996-07-01T00:00:00.000000+0000,2024-03-23T00:00:00.000000+0000,51.5554,13.8845,128.0000,Schipkau-Klettwitz,Brandenburg
02629,1904-10-01T00:00:00.000000+0000,2024-03-23T00:00:00.000000+0000,51.7612,6.0954,46.0000,Kleve,Nordrhein-Westfalen
02638,1947-01-01T00:00:00.000000+0000,2024-03-23T00:00:00.000000+0000,48.1054,8.7548,974.0000,Klippeneck,Baden-Württemberg
02641,1994-10-01T00:00:00.000000+0000,2024-03-23T00:00:00.000000+0000,51.5185,12.9065,90.0000,Klitzschen bei Torgau,Sachsen
02667,1957-07-01T00:00:00.000000+0000,2024-03-23T00:00:00.000000+0000,50.8645,7.1575,91.0000,Köln/Bonn,Nordrhein-Westfalen
02680,1951-01-01T00:00:00.000000+0000,2024-03-23T00:00:00.000000+0000,50.2840,10.4456,289.0000,"Königshofen, Bad",Bayern
02700,1961-01-01T00:00:00.000000+0000,2024-03-23T00:00:00.000000+0000,48.8302,11.4872,416.0000,Kösching,Bayern
02704,1955-06-01T00:00:00.000000+0000,2024-03-23T00:00:00.000000+0000,51.7511,12.0094,76.0000,Köthen (Anhalt),Sachsen-Anhalt
02708,1991-08-01T00:00:00.000000+0000,2024-03-23T00:00:00.000000+0000,47.6652,11.0805,742.0000,"Kohlgrub, Bad (Rosshof)",Bayern
02712,1959-07-01T00:00:00.000000+0000,2024-03-23T00:00:00.000000+0000,47.6952,9.1307,428.0000,Konstanz,Baden-Württemberg
02750,1949-01-01T00:00:00.000000+0000,2024-03-23T00:00:00.000000+0000,50.2524,11.3209,310.0000,Kronach,Bayern
02794,1945-05-01T00:00:00.000000+0000,2024-03-23T00:00:00.000000+0000,52.9362,12.4093,40.0000,Kyritz,Brandenburg
02812,1950-01-01T00:00:00.000000+0000,2024-03-23T00:00:00.000000+0000,48.3647,7.8280,156.0000,Lahr,Baden-Württemberg
02814,1949-01-01T00:00:00.000000+0000,2024-03-23T00:00:00.000000+0000,48.5122,9.7644,687.0000,Merklingen,Baden-Württemberg
02856,1993-06-01T00:00:00.000000+0000,2024-03-23T00:00:00.000000+0000,51.9173,13.0878,91.0000,Langenlipsdorf,Brandenburg
02878,1947-04-01T00:00:00.000000+0000,2024-03-23T00:00:00.000000+0000,51.3909,11.8786,117.0000,"Lauchstädt, Bad",Sachsen-Anhalt
02907,1974-11-01T00:00:00.000000+0000,2024-03-23T00:00:00.000000+0000,54.7903,8.9514,7.0000,Leck,Schleswig-Holstein
02925,1957-01-01T00:00:00.000000+0000,2024-03-23T00:00:00.000000+0000,51.3932,10.3123,356.0000,Leinefelde,Thüringen
02928,1863-12-01T00:00:00.000000+0000,2024-03-23T00:00:00.000000+0000,51.3151,12.4462,138.0000,Leipzig-Holzhausen,Sachsen
02932,1934-01-01T00:00:00.000000+0000,2024-03-23T00:00:00.000000+0000,51.4347,12.2396,131.0000,Leipzig/Halle,Sachsen
02947,1962-04-01T00:00:00.000000+0000,2024-03-23T00:00:00.000000+0000,51.1333,8.0348,286.0000,Lennestadt-Theten,Nordrhein-Westfalen
02951,1994-10-01T00:00:00.000000+0000,2024-03-23T00:00:00.000000+0000,53.1007,11.4864,20.0000,Lenzen/Elbe,Brandenburg
02953,1961-01-01T00:00:00.000000+0000,2024-03-23T00:00:00.000000+0000,47.8597,8.2308,854.0000,Lenzkirch-Ruhbühl,Baden-Württemberg
02961,1998-01-01T00:00:00.000000+0000,2024-03-23T00:00:00.000000+0000,54.4996,10.2737,0.0000,Leuchtturm Kiel,Schleswig-Holstein
02968,1945-01-01T00:00:00.000000+0000,2024-03-23T00:00:00.000000+0000,50.9894,6.9777,43.0000,Köln-Stammheim,Nordrhein-Westfalen
02985,1991-01-01T00:00:00.000000+0000,2024-03-23T00:00:00.000000+0000,50.9383,14.2094,321.0000,Lichtenhain-Mittelndorf,Sachsen
03015,1906-04-01T00:00:00.000000+0000,2024-03-23T00:00:00.000000+0000,52.2085,14.1180,98.0000,Lindenberg,Brandenburg
03028,1951-01-01T00:00:00.000000+0000,2024-03-23T00:00:00.000000+0000,51.7854,8.8388,157.0000,"Lippspringe, Bad",Nordrhein-Westfalen
03031,1980-12-01T00:00:00.000000+0000,2024-03-23T00:00:00.000000+0000,51.6336,8.3945,92.0000,Lippstadt-Bökenförde,Nordrhein-Westfalen
03032,1937-01-01T00:00:00.000000+0000,2024-03-23T00:00:00.000000+0000,55.0110,8.4125,25.0000,List auf Sylt,Schleswig-Holstein
03034,1952-03-01T00:00:00.000000+0000,2024-03-23T00:00:00.000000+0000,50.4505,11.6350,496.0000,"Lobenstein, Bad",Thüringen
03042,1993-07-01T00:00:00.000000+0000,2024-03-23T00:00:00.000000+0000,50.5617,8.2386,230.0000,Löhnberg-Obershausen,Hessen
03083,1991-10-01T00:00:00.000000+0000,2024-03-23T00:00:00.000000+0000,51.9267,13.8797,57.0000,Lübben-Blumenfelde,Brandenburg
03086,1985-03-01T00:00:00.000000+0000,2024-03-23T00:00:00.000000+0000,53.8025,10.6989,15.0000,Lübeck-Blankensee,Schleswig-Holstein
03093,1954-12-01T00:00:00.000000+0000,2024-03-23T00:00:00.000000+0000,52.9724,11.1374,16.0000,Lüchow,Niedersachsen
03098,1994-01-01T00:00:00.000000+0000,2024-03-23T00:00:00.000000+0000,51.2452,7.6425,387.0000,Lüdenscheid,Nordrhein-Westfalen
03126,1881-01-01T00:00:00.000000+0000,2024-03-23T00:00:00.000000+0000,52.1029,11.5827,79.0000,Magdeburg,Sachsen-Anhalt
03137,1948-01-01T00:00:00.000000+0000,2023-08-01T00:00:00.000000+0000,49.9656,8.2139,195.0000,Mainz-Lerchenberg (ZDF),Rheinland-Pfalz
03147,1953-01-01T00:00:00.000000+0000,2024-03-23T00:00:00.000000+0000,48.7548,12.2118,390.0000,Mallersdorf-Pfaffenberg-Oberlindhart,Bayern
03155,1961-11-01T00:00:00.000000+0000,2024-03-23T00:00:00.000000+0000,50.1015,6.8009,413.0000,Manderscheid-Sonnenhof,Rheinland-Pfalz
03158,1985-01-01T00:00:00.000000+0000,2024-03-23T00:00:00.000000+0000,52.5468,14.5453,12.0000,Manschnow,Brandenburg
03164,1946-01-01T00:00:00.000000+0000,2024-03-23T00:00:00.000000+0000,50.8492,8.7745,187.0000,"Cölbe, Kr. Marburg-Biedenkopf",Hessen
03166,1955-08-01T00:00:00.000000+0000,2024-03-23T00:00:00.000000+0000,50.6511,13.1469,639.0000,Marienberg,Sachsen
03167,1962-12-01T00:00:00.000000+0000,2024-03-23T00:00:00.000000+0000,50.6621,7.9603,547.0000,"Marienberg, Bad",Rheinland-Pfalz
03181,2021-08-01T00:00:00.000000+0000,2024-03-23T00:00:00.000000+0000,49.4875,10.6277,360.0000,Markt Erlbach-Hagenhofen,Bayern
03196,1902-01-01T00:00:00.000000+0000,2024-03-23T00:00:00.000000+0000,53.3222,11.9321,81.0000,Marnitz,Mecklenburg-Vorpommern
03204,1983-11-01T00:00:00.000000+0000,2024-03-23T00:00:00.000000+0000,50.7335,10.8815,429.0000,Martinroda,Thüringen
03226,2006-08-01T00:00:00.000000+0000,2024-03-23T00:00:00.000000+0000,51.7259,11.5109,107.0000,Aschersleben-Mehringen,Sachsen-Anhalt
03231,1979-01-01T00:00:00.000000+0000,2024-03-23T00:00:00.000000+0000,50.5611,10.3771,450.0000,Meiningen,Thüringen
03234,1956-06-01T00:00:00.000000+0000,2024-03-23T00:00:00.000000+0000,51.1294,13.4328,158.0000,Klipphausen-Garsebach,Sachsen
03244,1961-01-01T00:00:00.000000+0000,2024-03-23T00:00:00.000000+0000,47.9821,10.1384,614.0000,Memmingen,Bayern
03257,1947-01-01T00:00:00.000000+0000,2022-09-30T00:00:00.000000+0000,49.4797,9.7832,278.0000,"Mergentheim, Bad",Baden-Württemberg
03268,2000-06-01T00:00:00.000000+0000,2024-03-23T00:00:00.000000+0000,48.1694,8.9433,900.0000,Meßstetten-Appental,Baden-Württemberg
03271,1941-01-01T00:00:00.000000+0000,2024-03-23T00:00:00.000000+0000,48.8548,12.9189,314.0000,Metten,Bayern
03278,2003-01-01T00:00:00.000000+0000,2024-03-23T00:00:00.000000+0000,48.5377,9.2734,354.0000,Metzingen,Baden-Württemberg
03284,1987-01-01T00:00:00.000000+0000,2024-03-23T00:00:00.000000+0000,49.6692,9.0085,240.0000,Michelstadt,Hessen
03287,1987-10-01T00:00:00.000000+0000,2024-03-23T00:00:00.000000+0000,49.7177,9.0997,453.0000,Michelstadt-Vielbrunn,Hessen
03289,1972-10-01T00:00:00.000000+0000,2024-03-23T00:00:00.000000+0000,50.7281,11.7838,356.0000,Schmieritz-Weltwitz,Thüringen
03307,1937-01-01T00:00:00.000000+0000,2022-12-31T00:00:00.000000+0000,47.4779,11.2653,984.0000,Mittenwald-Buckelwiesen,Bayern
03319,2006-09-01T00:00:00.000000+0000,2024-03-23T00:00:00.000000+0000,49.7644,9.2530,239.0000,Röllbach,Bayern
03321,2008-04-25T00:00:00.000000+0000,2024-03-23T00:00:00.000000+0000,51.1313,6.3608,76.0000,Mönchengladbach-Hilderath,Nordrhein-Westfalen
03348,1990-07-01T00:00:00.000000+0000,2024-03-23T00:00:00.000000+0000,51.7209,9.8351,241.0000,Moringen-Lutterbeck,Niedersachsen
03362,1998-01-01T00:00:00.000000+0000,2024-03-23T00:00:00.000000+0000,48.9721,8.8735,243.0000,Mühlacker,Baden-Württemberg
03366,1953-01-01T00:00:00.000000+0000,2024-03-23T00:00:00.000000+0000,48.2790,12.5024,406.0000,Mühldorf,Bayern
03376,1937-01-01T00:00:00.000000+0000,2024-03-23T00:00:00.000000+0000,52.5176,14.1232,63.0000,Müncheberg,Brandenburg
03379,1954-06-01T00:00:00.000000+0000,2024-03-23T00:00:00.000000+0000,48.1632,11.5429,515.0000,München-Stadt,Bayern
03402,1946-01-01T00:00:00.000000+0000,2024-03-23T00:00:00.000000+0000,48.3851,9.4837,755.0000,Münsingen-Apfelstetten,Baden-Württemberg
03426,1936-05-18T00:00:00.000000+0000,2024-03-23T00:00:00.000000+0000,51.5660,14.7008,127.0000,"Muskau, Bad",Sachsen
03442,1947-01-01T00:00:00.000000+0000,2024-03-23T00:00:00.000000+0000,50.3574,8.7506,149.0000,"Nauheim, Bad",Hessen
03485,1991-06-01T00:00:00.000000+0000,2024-03-23T00:00:00.000000+0000,48.3115,10.3773,486.0000,Neuburg/Kammel-Langenhaslach,Bayern
03490,1948-01-01T00:00:00.000000+0000,2024-03-23T00:00:00.000000+0000,50.5346,7.0853,111.0000,"Neuenahr, Bad-Ahrweiler",Rheinland-Pfalz
03509,2004-10-01T00:00:00.000000+0000,2024-03-23T00:00:00.000000+0000,53.1020,13.0421,78.0000,Stechlin-Menz,Brandenburg
03513,1953-07-01T00:00:00.000000+0000,2024-03-23T00:00:00.000000+0000,50.5003,11.1345,845.0000,Neuhaus am Rennweg,Thüringen
03527,1947-01-01T00:00:00.000000+0000,2024-03-23T00:00:00.000000+0000,50.8923,9.4050,500.0000,Neukirchen-Hauptschwenda,Hessen
03540,1992-09-01T00:00:00.000000+0000,2024-03-23T00:00:00.000000+0000,50.8446,7.3720,195.0000,Neunkirchen-Seelscheid-Krawinkel,Nordrhein-Westfalen
03545,1970-01-01T00:00:00.000000+0000,2024-03-23T00:00:00.000000+0000,49.3440,7.2297,236.0000,Neunkirchen-Wellesweiler,Saarland
03571,2008-03-01T00:00:00.000000+0000,2024-03-23T00:00:00.000000+0000,49.8174,11.8638,452.0000,Neustadt am Kulm-Filchendorf,Bayern
03591,1994-01-01T00:00:00.000000+0000,2024-03-23T00:00:00.000000+0000,50.6743,6.4240,350.0000,Nideggen-Schmidt,Nordrhein-Westfalen
03612,1947-01-01T00:00:00.000000+0000,2024-03-23T00:00:00.000000+0000,52.6711,9.2229,25.0000,Nienburg,Niedersachsen
03621,1947-01-01T00:00:00.000000+0000,2024-03-23T00:00:00.000000+0000,48.8253,10.5067,435.0000,Reimlingen,Bayern
03631,1858-03-01T00:00:00.000000+0000,2024-03-23T00:00:00.000000+0000,53.7123,7.1519,12.0000,Norderney,Niedersachsen
03660,1995-03-01T00:00:00.000000+0000,2024-03-23T00:00:00.000000+0000,50.3602,6.8697,485.0000,Nürburg-Barweiler,Rheinland-Pfalz
03667,1975-01-01T00:00:00.000000+0000,2024-03-23T00:00:00.000000+0000,49.4258,11.2539,369.0000,Nürnberg-Netzstall,Bayern
03668,1879-01-01T00:00:00.000000+0000,2024-03-23T00:00:00.000000+0000,49.5030,11.0549,314.0000,Nürnberg,Bayern
03679,1947-01-01T00:00:00.000000+0000,2024-03-23T00:00:00.000000+0000,47.6187,12.1665,518.0000,Kiefersfelden-Gach,Bayern
03730,1910-01-01T00:00:00.000000+0000,2024-03-23T00:00:00.000000+0000,47.3984,10.2759,806.0000,Oberstdorf,Bayern
03734,2004-07-01T00:00:00.000000+0000,2024-03-23T00:00:00.000000+0000,49.1280,9.3525,232.0000,Obersulm-Willsbach,Baden-Württemberg
03739,1948-10-01T00:00:00.000000+0000,2024-03-23T00:00:00.000000+0000,49.4521,12.4365,596.0000,Oberviechtach,Bayern
03761,1947-01-01T00:00:00.000000+0000,2024-03-23T00:00:00.000000+0000,49.2070,9.5176,276.0000,Öhringen,Baden-Württemberg
03811,1941-10-01T00:00:00.000000+0000,2024-03-23T00:00:00.000000+0000,51.2960,13.0928,150.0000,Oschatz,Sachsen
03821,1984-08-01T00:00:00.000000+0000,2024-03-23T00:00:00.000000+0000,51.0872,11.9293,244.0000,Osterfeld,Sachsen-Anhalt
03836,1972-05-01T00:00:00.000000+0000,2024-03-23T00:00:00.000000+0000,50.4538,10.2211,314.0000,Ostheim v.d. Rhön,Bayern
03857,1993-10-01T00:00:00.000000+0000,2024-03-23T00:00:00.000000+0000,47.6362,10.3892,886.0000,Oy-Mittelberg-Petersthal,Bayern
03875,1950-01-01T00:00:00.000000+0000,2024-03-23T00:00:00.000000+0000,49.1510,11.6896,549.0000,Parsberg/Oberpfalz-Eglwang,Bayern
03897,1998-01-01T00:00:00.000000+0000,2024-03-23T00:00:00.000000+0000,54.0893,10.8773,2.0000,Pelzerhaken,Schleswig-Holstein
03904,1965-01-01T00:00:00.000000+0000,2024-03-23T00:00:00.000000+0000,49.5354,6.3789,152.0000,Perl-Nennig,Saarland
03925,1989-04-06T00:00:00.000000+0000,2024-03-23T00:00:00.000000+0000,48.9329,8.6973,332.0000,Pforzheim-Ispringen,Baden-Württemberg
03927,1958-01-01T00:00:00.000000+0000,2024-03-23T00:00:00.000000+0000,47.9345,9.2869,630.0000,Pfullendorf,Baden-Württemberg
03939,1950-01-01T00:00:00.000000+0000,2024-03-23T00:00:00.000000+0000,49.1912,7.5879,385.0000,Pirmasens,Rheinland-Pfalz
03946,1882-01-01T00:00:00.000000+0000,2024-03-23T00:00:00.000000+0000,50.4818,12.1300,387.0000,Plauen,Sachsen
03975,1993-09-01T00:00:00.000000+0000,2024-03-23T00:00:00.000000+0000,49.4777,11.5357,522.0000,Pommelsbrunn-Mittelburg,Bayern
03987,1893-01-01T00:00:00.000000+0000,2024-03-23T00:00:00.000000+0000,52.3812,13.0622,81.0000,Potsdam,Brandenburg
04024,1853-07-01T00:00:00.000000+0000,2024-03-23T00:00:00.000000+0000,54.3643,13.4771,40.0000,Putbus,Mecklenburg-Vorpommern
04032,1945-01-01T00:00:00.000000+0000,2024-03-23T00:00:00.000000+0000,51.7953,11.1320,142.0000,Quedlinburg,Sachsen-Anhalt
04036,1953-06-01T00:00:00.000000+0000,2024-03-23T00:00:00.000000+0000,51.3895,11.5412,204.0000,Querfurt-Mühle Lodersleben,Sachsen-Anhalt
04039,1974-12-01T00:00:00.000000+0000,2024-03-23T00:00:00.000000+0000,53.7331,9.8776,11.0000,Quickborn,Schleswig-Holstein
04063,1951-01-01T00:00:00.000000+0000,2024-03-23T00:00:00.000000+0000,52.4461,8.5906,41.0000,Rahden-Kleinendorf,Nordrhein-Westfalen
04094,1946-01-01T00:00:00.000000+0000,2024-03-23T00:00:00.000000+0000,47.8062,9.6206,441.0000,"Weingarten, Kr. Ravensburg",Baden-Württemberg
04104,1879-01-01T00:00:00.000000+0000,2024-03-23T00:00:00.000000+0000,49.0425,12.1019,365.0000,Regensburg,Bayern
04127,1991-10-01T00:00:00.000000+0000,2024-03-23T00:00:00.000000+0000,50.9906,7.6958,347.0000,Reichshof-Eckenhagen,Nordrhein-Westfalen
04160,1970-12-22T00:00:00.000000+0000,2024-03-23T00:00:00.000000+0000,48.7425,8.9240,478.0000,Renningen-Ihinger Hof,Baden-Württemberg
04169,1958-01-01T00:00:00.000000+0000,2024-03-23T00:00:00.000000+0000,48.6703,7.9939,131.0000,Rheinau-Memprechtshofen,Baden-Württemberg
04175,1953-09-01T00:00:00.000000+0000,2024-03-23T00:00:00.000000+0000,47.5590,7.7721,283.0000,Rheinfelden,Baden-Württemberg
04177,1948-01-01T00:00:00.000000+0000,2024-03-23T00:00:00.000000+0000,48.9726,8.3301,116.0000,Rheinstetten,Baden-Württemberg
04189,2004-08-01T00:00:00.000000+0000,2024-03-23T00:00:00.000000+0000,48.1479,9.4596,534.0000,"Altheim, Kreis Biberach",Baden-Württemberg
04261,1950-01-01T00:00:00.000000+0000,2024-03-23T00:00:00.000000+0000,47.8753,12.1280,442.0000,Rosenheim,Bayern
04271,1947-01-01T00:00:00.000000+0000,2024-03-23T00:00:00.000000+0000,54.1803,12.0808,5.0000,Rostock-Warnemünde,Mecklenburg-Vorpommern
04275,1946-01-01T00:00:00.000000+0000,2024-03-23T00:00:00.000000+0000,53.1289,9.3398,32.0000,Rotenburg (Wümme),Niedersachsen
04280,1971-01-01T00:00:00.000000+0000,2024-03-23T00:00:00.000000+0000,49.2162,11.1035,386.0000,Roth,Bayern
04287,1947-06-01T00:00:00.000000+0000,2024-03-23T00:00:00.000000+0000,49.3849,10.1732,415.0000,Rothenburg ob der Tauber,Bayern
04300,1957-02-01T00:00:00.000000+0000,2024-03-23T00:00:00.000000+0000,48.1815,8.6356,589.0000,Rottweil,Baden-Württemberg
04301,1947-01-01T00:00:00.000000+0000,2024-03-23T00:00:00.000000+0000,49.8502,7.8710,102.0000,"Kreuznach, Bad",Rheinland-Pfalz
04323,1969-01-01T00:00:00.000000+0000,2024-03-23T00:00:00.000000+0000,49.6468,7.8837,461.0000,Ruppertsecken,Rheinland-Pfalz
04336,1951-01-01T00:00:00.000000+0000,2024-03-23T00:00:00.000000+0000,49.2128,7.1077,319.0000,Saarbrücken-Ensheim,Saarland
04349,1987-11-01T00:00:00.000000+0000,2024-03-23T00:00:00.000000+0000,48.9569,9.0711,251.0000,Sachsenheim,Baden-Württemberg
04354,1985-09-01T00:00:00.000000+0000,2024-03-23T00:00:00.000000+0000,48.7832,13.3146,457.0000,Saldenburg-Entschenreuth,Bayern
04371,1935-01-01T00:00:00.000000+0000,2024-03-23T00:00:00.000000+0000,52.1042,8.7521,135.0000,"Salzuflen, Bad",Nordrhein-Westfalen
04377,1965-01-01T00:00:00.000000+0000,2024-03-23T00:00:00.000000+0000,50.3518,10.0034,518.0000,Sandberg,Bayern
04393,1951-01-01T00:00:00.000000+0000,2024-03-23T00:00:00.000000+0000,54.3279,8.6031,5.0000,Sankt Peter-Ording,Schleswig-Holstein
04411,1979-12-01T00:00:00.000000+0000,2024-03-23T00:00:00.000000+0000,49.9195,8.9672,155.0000,Schaafheim-Schlierbach,Hessen
04445,1902-12-01T00:00:00.000000+0000,2024-03-23T00:00:00.000000+0000,51.7658,10.6533,609.0000,Wernigerode-Schierke,Sachsen-Anhalt
04464,1951-04-01T00:00:00.000000+0000,2024-03-23T00:00:00.000000+0000,50.5679,11.8041,501.0000,Schleiz,Thüringen
04466,1947-01-01T00:00:00.000000+0000,2024-03-23T00:00:00.000000+0000,54.5275,9.5487,43.0000,Schleswig,Schleswig-Holstein
04480,1985-10-01T00:00:00.000000+0000,2024-03-23T00:00:00.000000+0000,50.3447,9.5533,230.0000,Schlüchtern-Herolz,Hessen
04501,1936-01-01T00:00:00.000000+0000,2024-03-23T00:00:00.000000+0000,50.6545,10.7696,938.0000,Schmücke,Thüringen
04508,1953-01-01T00:00:00.000000+0000,2024-03-23T00:00:00.000000+0000,50.2968,6.4194,649.0000,Schneifelforsthaus,Rheinland-Pfalz
04548,2007-07-01T00:00:00.000000+0000,2024-03-23T00:00:00.000000+0000,50.1847,12.0791,608.0000,Schönwald/Ofr.-Brunn,Bayern
04559,1996-05-01T00:00:00.000000+0000,2024-03-23T00:00:00.000000+0000,49.1644,12.6175,398.0000,Schorndorf-Knöbling,Bayern
04560,1949-01-01T00:00:00.000000+0000,2022-01-02T00:00:00.000000+0000,50.4925,9.1226,265.0000,Schotten,Hessen
04592,1955-10-21T00:00:00.000000+0000,2024-03-23T00:00:00.000000+0000,49.3278,12.0871,356.0000,Schwandorf,Bayern
04605,1949-07-05T00:00:00.000000+0000,2024-03-23T00:00:00.000000+0000,50.6441,11.1936,277.0000,Schwarzburg,Thüringen
04625,1890-01-01T00:00:00.000000+0000,2024-03-23T00:00:00.000000+0000,53.6424,11.3871,59.0000,Schwerin,Mecklenburg-Vorpommern
04642,1976-10-01T00:00:00.000000+0000,2024-03-23T00:00:00.000000+0000,52.8911,11.7297,21.0000,Seehausen,Sachsen-Anhalt
04651,1937-01-01T00:00:00.000000+0000,2024-03-23T00:00:00.000000+0000,51.9040,10.1885,189.0000,Seesen,Niedersachsen
04703,1951-01-01T00:00:00.000000+0000,2024-03-23T00:00:00.000000+0000,48.0719,9.1943,581.0000,Sigmaringen-Laiz,Baden-Württemberg
04704,1988-05-01T00:00:00.000000+0000,2024-03-23T00:00:00.000000+0000,47.5776,9.7404,508.0000,Sigmarszell-Zeisertsweiler,Bayern
04706,1981-01-01T00:00:00.000000+0000,2024-03-23T00:00:00.000000+0000,48.2718,13.0273,358.0000,Simbach/Inn,Bayern
04709,1979-04-01T00:00:00.000000+0000,2024-03-23T00:00:00.000000+0000,49.9996,7.5981,445.0000,Simmern-Wahlbach,Rheinland-Pfalz
04745,1935-01-01T00:00:00.000000+0000,2024-03-23T00:00:00.000000+0000,52.9604,9.7930,75.0000,Soltau,Niedersachsen
04748,1861-01-01T00:00:00.000000+0000,2024-03-23T00:00:00.000000+0000,51.3691,10.8800,185.0000,Sondershausen,Thüringen
04763,1961-01-01T00:00:00.000000+0000,2024-03-23T00:00:00.000000+0000,51.0607,9.9266,265.0000,Sontra,Hessen
04813,2020-08-01T00:00:00.000000+0000,2024-03-23T00:00:00.000000+0000,50.0806,11.0467,318.0000,"Staffelstein, Bad-Stublang",Bayern
04841,1998-10-01T00:00:00.000000+0000,2024-03-23T00:00:00.000000+0000,53.6946,8.8735,-0.0000,"Steinau, Kr. Cuxhaven",Niedersachsen
04857,1990-11-01T00:00:00.000000+0000,2024-03-23T00:00:00.000000+0000,53.5534,9.6097,2.0000,Mittelnkirchen-Hohenfelde,Niedersachsen
04878,1930-01-01T00:00:00.000000+0000,2024-03-23T00:00:00.000000+0000,51.6646,10.8811,504.0000,Oberharz am Brocken-Stiege,Sachsen-Anhalt
04887,1947-01-01T00:00:00.000000+0000,2024-03-23T00:00:00.000000+0000,48.6656,9.8648,734.0000,Stötten,Baden-Württemberg
04896,1974-12-01T00:00:00.000000+0000,2022-11-30T00:00:00.000000+0000,54.6654,9.8050,40.0000,Wagersrott,Schleswig-Holstein
04911,1949-05-01T00:00:00.000000+0000,2024-03-23T00:00:00.000000+0000,48.8275,12.5597,351.0000,Straubing,Bayern
04928,1958-01-01T00:00:00.000000+0000,2024-03-23T00:00:00.000000+0000,48.8281,9.2000,314.0000,Stuttgart (Schnarrenberg),Baden-Württemberg
04931,1953-01-01T00:00:00.000000+0000,2024-03-23T00:00:00.000000+0000,48.6883,9.2235,371.0000,Stuttgart-Echterdingen,Baden-Württemberg
04978,1986-01-01T00:00:00.000000+0000,2024-03-23T00:00:00.000000+0000,50.6390,10.0228,395.0000,Tann/Rhön,Hessen
04997,1994-10-01T00:00:00.000000+0000,2024-03-23T00:00:00.000000+0000,50.9771,12.3419,196.0000,Starkenberg-Tegkwitz,Thüringen
05009,1947-01-01T00:00:00.000000+0000,2024-03-23T00:00:00.000000+0000,53.7610,12.5574,33.0000,Teterow,Mecklenburg-Vorpommern
05014,1952-01-01T00:00:00.000000+0000,2024-03-23T00:00:00.000000+0000,53.2758,8.9857,7.0000,Worpswede-Hüttenbusch,Niedersachsen
05017,1948-01-01T00:00:00.000000+0000,2024-03-23T00:00:00.000000+0000,50.4002,11.3888,633.0000,Teuschnitz,Bayern
05029,1975-06-01T00:00:00.000000+0000,2024-03-23T00:00:00.000000+0000,49.4737,7.0385,387.0000,Tholey,Saarland
05046,1967-01-01T00:00:00.000000+0000,2024-03-23T00:00:00.000000+0000,49.8576,12.3542,501.0000,Tirschenreuth-Lodermühl,Bayern
05064,2004-12-01T00:00:00.000000+0000,2024-03-23T00:00:00.000000+0000,51.2897,6.4437,37.0000,Tönisvorst,Nordrhein-Westfalen
05097,1991-01-01T00:00:00.000000+0000,2024-03-23T00:00:00.000000+0000,54.0654,12.7655,10.0000,Tribsees,Mecklenburg-Vorpommern
05099,1907-05-01T00:00:00.000000+0000,2024-03-23T00:00:00.000000+0000,49.7326,6.6131,132.0000,Trier-Zewen,Rheinland-Pfalz
05100,1937-01-01T00:00:00.000000+0000,2024-03-23T00:00:00.000000+0000,49.7479,6.6583,261.0000,Trier-Petrisberg,Rheinland-Pfalz
05109,2000-07-01T00:00:00.000000+0000,2024-03-23T00:00:00.000000+0000,53.5998,13.3039,68.0000,Trollenhagen,Mecklenburg-Vorpommern
05111,1945-01-01T00:00:00.000000+0000,2024-03-23T00:00:00.000000+0000,48.0311,12.5396,560.0000,Trostberg,Bayern
05133,1998-06-01T00:00:00.000000+0000,2024-03-23T00:00:00.000000+0000,51.3344,8.9132,295.0000,Twistetal-Mühlhausen,Hessen
05142,1936-09-01T00:00:00.000000+0000,2024-03-23T00:00:00.000000+0000,53.7445,14.0698,1.0000,Ueckermünde,Mecklenburg-Vorpommern
05146,1951-01-01T00:00:00.000000+0000,2024-03-23T00:00:00.000000+0000,52.9414,10.5289,50.0000,Uelzen,Niedersachsen
05149,1951-03-01T00:00:00.000000+0000,2022-10-04T00:00:00.000000+0000,49.5679,10.1969,318.0000,Gollhofen,Bayern
05158,1987-12-01T00:00:00.000000+0000,2024-03-23T00:00:00.000000+0000,52.1601,11.1759,159.0000,Ummendorf,Sachsen-Anhalt
05229,1947-01-01T00:00:00.000000+0000,2024-03-23T00:00:00.000000+0000,48.0453,8.4608,719.0000,Villingen-Schwenningen,Baden-Württemberg
05275,1985-10-01T00:00:00.000000+0000,2024-03-23T00:00:00.000000+0000,49.2445,8.5374,105.0000,Waghäusel-Kirrlach,Baden-Württemberg
05279,1951-01-01T00:00:00.000000+0000,2024-03-23T00:00:00.000000+0000,51.6194,9.5749,176.0000,Wesertal-Lippoldsberg,Hessen
05280,1981-04-01T00:00:00.000000+0000,2024-03-23T00:00:00.000000+0000,53.9224,10.2267,33.0000,Wittenborn,Schleswig-Holstein
05300,1951-01-01T00:00:00.000000+0000,2024-03-23T00:00:00.000000+0000,50.2596,8.3607,380.0000,Waldems-Reinborn,Hessen
05335,1945-01-01T00:00:00.000000+0000,2024-03-23T00:00:00.000000+0000,50.8963,10.5483,352.0000,Waltershausen,Thüringen
05347,1998-01-01T00:00:00.000000+0000,2024-03-23T00:00:00.000000+0000,51.5039,9.1118,236.0000,Warburg,Nordrhein-Westfalen
05349,1889-07-01T00:00:00.000000+0000,2024-03-23T00:00:00.000000+0000,53.5196,12.6654,73.0000,Waren (Müritz),Mecklenburg-Vorpommern
05371,1923-08-01T00:00:00.000000+0000,2024-03-23T00:00:00.000000+0000,50.4973,9.9427,920.0000,Wasserkuppe,Hessen
05397,1947-01-01T00:00:00.000000+0000,2024-03-23T00:00:00.000000+0000,49.6662,12.1844,440.0000,Weiden,Bayern
05404,1936-07-01T00:00:00.000000+0000,2024-03-23T00:00:00.000000+0000,48.4024,11.6946,477.0000,Weihenstephan-Dürnast,Bayern
05424,1949-03-01T00:00:00.000000+0000,2024-03-23T00:00:00.000000+0000,51.0177,11.3544,328.0000,Weimar-Schöndorf,Thüringen
05426,1953-01-01T00:00:00.000000+0000,2024-03-23T00:00:00.000000+0000,49.3758,8.1212,553.0000,Weinbiet,Rheinland-Pfalz
05433,1957-01-01T00:00:00.000000+0000,2024-03-23T00:00:00.000000+0000,49.5534,6.8120,380.0000,Weiskirchen/Saar,Saarland
05440,1879-01-01T00:00:00.000000+0000,2024-03-23T00:00:00.000000+0000,49.0115,10.9308,439.0000,Weißenburg-Emetzheim,Bayern
05480,1975-01-01T00:00:00.000000+0000,2024-03-23T00:00:00.000000+0000,51.5763,7.8879,85.0000,Werl,Nordrhein-Westfalen
05490,1947-01-01T00:00:00.000000+0000,2024-03-23T00:00:00.000000+0000,51.8454,10.7686,233.0000,Wernigerode,Sachsen-Anhalt
05516,1948-01-01T00:00:00.000000+0000,2024-03-23T00:00:00.000000+0000,54.5283,11.0606,3.0000,Fehmarn,Schleswig-Holstein
05538,1999-02-01T00:00:00.000000+0000,2024-03-23T00:00:00.000000+0000,47.8827,11.1576,551.0000,Wielenbach (Demollstr.),Bayern
05541,1987-06-01T00:00:00.000000+0000,2024-03-23T00:00:00.000000+0000,50.1321,8.3169,263.0000,Wiesbaden-Auringen,Hessen
05546,1967-04-01T00:00:00.000000+0000,2024-03-23T00:00:00.000000+0000,52.1206,12.4586,187.0000,Wiesenburg,Brandenburg
05562,1995-04-01T00:00:00.000000+0000,2024-03-23T00:00:00.000000+0000,48.6516,8.6801,571.0000,Neubulach-Oberhaugstett,Baden-Württemberg
05629,1937-01-01T00:00:00.000000+0000,2024-03-23T00:00:00.000000+0000,51.8891,12.6446,105.0000,Wittenberg,Sachsen-Anhalt
05643,1994-03-01T00:00:00.000000+0000,2024-03-23T00:00:00.000000+0000,53.1864,12.4949,68.0000,Wittstock-Rote Mühle,Brandenburg
05664,1958-01-01T00:00:00.000000+0000,2024-03-23T00:00:00.000000+0000,48.2953,8.2391,296.0000,Wolfach,Baden-Württemberg
05676,1981-04-01T00:00:00.000000+0000,2024-01-02T00:00:00.000000+0000,52.3962,10.6892,82.0000,Wolfsburg (Südwest),Niedersachsen
05688,2018-11-01T00:00:00.000000+0000,2024-03-23T00:00:00.000000+0000,47.7004,8.1057,881.0000,Dachsberg-Wolpadingen,Baden-Württemberg
05692,1936-01-01T00:00:00.000000+0000,2024-03-23T00:00:00.000000+0000,49.6051,8.3659,88.0000,Worms,Rheinland-Pfalz
05705,1947-01-01T00:00:00.000000+0000,2024-03-23T00:00:00.000000+0000,49.7704,9.9576,268.0000,Würzburg,Bayern
05717,1937-01-01T00:00:00.000000+0000,2024-03-23T00:00:00.000000+0000,51.2256,7.1052,134.0000,Wuppertal-Buchenhofen,Nordrhein-Westfalen
05731,1961-01-01T00:00:00.000000+0000,2024-03-23T00:00:00.000000+0000,47.6783,8.3801,395.0000,Wutöschingen-Ofteringen,Baden-Württemberg
05745,1948-07-01T00:00:00.000000+0000,2024-03-23T00:00:00.000000+0000,52.9664,13.3268,51.0000,Zehdenick,Brandenburg
05750,1952-09-01T00:00:00.000000+0000,2024-03-23T00:00:00.000000+0000,51.0314,12.1495,264.0000,Zeitz,Sachsen-Anhalt
05779,1971-01-01T00:00:00.000000+0000,2024-03-23T00:00:00.000000+0000,50.7313,13.7516,877.0000,Zinnwald-Georgenfeld,Sachsen
05792,1900-08-01T00:00:00.000000+0000,2024-03-23T00:00:00.000000+0000,47.4210,10.9848,2956.0000,Zugspitze,Bayern
05797,1863-12-03T00:00:00.000000+0000,2024-03-23T00:00:00.000000+0000,50.6879,12.4329,349.0000,Lichtentanne,Sachsen
05800,1998-01-01T00:00:00.000000+0000,2024-03-23T00:00:00.000000+0000,49.0280,13.2385,615.0000,Zwiesel,Bayern
05822,1975-10-01T00:00:00.000000+0000,2024-03-23T00:00:00.000000+0000,52.8630,8.6989,42.0000,Bassum,Niedersachsen
05825,1953-07-01T00:00:00.000000+0000,2024-03-23T00:00:00.000000+0000,52.6198,12.7867,40.0000,Berge,Brandenburg
05839,1997-07-01T00:00:00.000000+0000,2024-03-23T00:00:00.000000+0000,53.3881,7.2287,-0.0000,Emden,Niedersachsen
05856,1996-12-31T00:00:00.000000+0000,2024-03-23T00:00:00.000000+0000,48.5451,13.3532,476.0000,Fürstenzell,Bayern
05871,1998-11-01T00:00:00.000000+0000,2024-03-23T00:00:00.000000+0000,49.9463,7.2645,497.0000,Hahn,Rheinland-Pfalz
05906,1936-01-01T00:00:00.000000+0000,2024-03-23T00:00:00.000000+0000,49.5063,8.5584,98.0000,Mannheim,Baden-Württemberg
05930,1981-08-01T00:00:00.000000+0000,2024-03-23T00:00:00.000000+0000,54.6410,10.0238,1.0000,Schönhagen (Ostseebad),Schleswig-Holstein
05941,1945-01-01T00:00:00.000000+0000,2024-03-23T00:00:00.000000+0000,47.6754,12.4698,686.0000,Reit im Winkl,Bayern
06093,1998-02-01T00:00:00.000000+0000,2024-03-23T00:00:00.000000+0000,53.2139,10.4704,62.0000,Wendisch Evern,Niedersachsen
06105,1998-06-01T00:00:00.000000+0000,2024-03-23T00:00:00.000000+0000,54.3194,9.8051,15.0000,Ostenfeld (Rendsburg),Schleswig-Holstein
06109,1998-10-01T00:00:00.000000+0000,2024-03-23T00:00:00.000000+0000,53.3837,14.3728,52.0000,Grambow-Schwennenz,Mecklenburg-Vorpommern
06129,1999-05-01T00:00:00.000000+0000,2024-03-23T00:00:00.000000+0000,51.0594,14.4266,291.0000,Sohland/Spree,Sachsen
06157,1999-02-01T00:00:00.000000+0000,2024-03-23T00:00:00.000000+0000,53.6411,8.0809,4.0000,Wangerland-Hooksiel,Niedersachsen
06158,1999-07-01T00:00:00.000000+0000,2024-03-23T00:00:00.000000+0000,49.2249,10.6085,454.0000,Weidenbach-Weiherschneidbach,Bayern
06159,1959-03-01T00:00:00.000000+0000,2024-03-23T00:00:00.000000+0000,52.9542,7.3197,8.0000,Dörpen,Niedersachsen
06163,1999-10-04T00:00:00.000000+0000,2024-03-23T00:00:00.000000+0000,54.1654,10.3519,27.0000,Dörnick,Schleswig-Holstein
06170,2000-02-01T00:00:00.000000+0000,2024-03-23T00:00:00.000000+0000,52.0192,14.7254,39.0000,Coschen,Brandenburg
06197,2000-10-11T00:00:00.000000+0000,2024-03-23T00:00:00.000000+0000,51.8664,9.2710,258.0000,Lügde-Paenbruch,Nordrhein-Westfalen
06199,2000-08-01T00:00:00.000000+0000,2024-03-23T00:00:00.000000+0000,54.2484,13.0419,17.0000,Steinhagen-Negast,Mecklenburg-Vorpommern
06217,2001-04-01T00:00:00.000000+0000,2024-03-23T00:00:00.000000+0000,49.2406,6.9351,190.0000,Saarbrücken-Burbach,Saarland
06258,2003-01-01T00:00:00.000000+0000,2024-03-23T00:00:00.000000+0000,47.6845,9.4409,461.0000,Friedrichshafen-Unterraderach,Baden-Württemberg
06259,2004-06-01T00:00:00.000000+0000,2024-03-23T00:00:00.000000+0000,49.0210,9.6033,524.0000,Großerlach-Mannenweiler,Baden-Württemberg
06260,2002-12-01T00:00:00.000000+0000,2024-03-23T00:00:00.000000+0000,49.3328,9.7040,385.0000,Ingelfingen-Stachenhausen,Baden-Württemberg
06262,2002-11-01T00:00:00.000000+0000,2024-03-23T00:00:00.000000+0000,48.7695,9.8737,412.0000,Schwäbisch Gmünd-Weiler,Baden-Württemberg
06263,2004-07-01T00:00:00.000000+0000,2024-03-23T00:00:00.000000+0000,47.7738,8.8219,445.0000,Singen,Baden-Württemberg
06264,2004-06-01T00:00:00.000000+0000,2024-03-23T00:00:00.000000+0000,51.4140,8.6500,457.0000,Brilon-Thülen,Nordrhein-Westfalen
06265,2004-05-01T00:00:00.000000+0000,2024-03-23T00:00:00.000000+0000,52.3613,12.3867,36.0000,Wusterwitz,Brandenburg
06266,2004-09-01T00:00:00.000000+0000,2024-03-23T00:00:00.000000+0000,52.0304,10.9626,112.0000,Huy-Pabstorf,Sachsen-Anhalt
06272,2004-10-01T00:00:00.000000+0000,2024-03-23T00:00:00.000000+0000,50.8426,10.2518,284.0000,"Salzungen, Bad-Gräfen-Nitzendorf",Thüringen
06273,2004-06-01T00:00:00.000000+0000,2024-03-23T00:00:00.000000+0000,52.5075,11.8551,36.0000,Demker,Sachsen-Anhalt
06275,2004-07-01T00:00:00.000000+0000,2024-03-23T00:00:00.000000+0000,48.6705,9.4627,327.0000,Notzingen,Baden-Württemberg
06305,2004-12-01T00:00:00.000000+0000,2024-03-23T00:00:00.000000+0000,51.2061,10.4978,193.0000,Mühlhausen/Thüringen-Görmar,Thüringen
06310,2004-08-01T00:00:00.000000+0000,2024-03-23T00:00:00.000000+0000,54.1049,13.8239,1.0000,Karlshagen,Mecklenburg-Vorpommern
06314,1949-02-01T00:00:00.000000+0000,2024-03-23T00:00:00.000000+0000,51.0507,13.3003,306.0000,Nossen,Sachsen
06336,2005-11-01T00:00:00.000000+0000,2024-03-23T00:00:00.000000+0000,50.0132,9.6540,288.0000,Lohr/Main-Halsbach,Bayern
06337,2004-08-01T00:00:00.000000+0000,2024-03-23T00:00:00.000000+0000,51.7663,7.5194,59.0000,Lüdinghausen-Brochtrup,Nordrhein-Westfalen
06344,2004-12-01T00:00:00.000000+0000,2024-03-23T00:00:00.000000+0000,50.3940,8.1423,168.0000,Runkel-Ennerich,Hessen
06346,2005-02-01T00:00:00.000000+0000,2024-03-23T00:00:00.000000+0000,48.2070,11.2035,531.0000,Maisach-Galgen,Bayern
06347,2005-03-01T00:00:00.000000+0000,2024-03-23T00:00:00.000000+0000,50.0579,10.2972,305.0000,Schonungen-Mainberg,Bayern
07075,2005-02-01T00:00:00.000000+0000,2024-03-23T00:00:00.000000+0000,48.7020,11.8493,429.0000,Elsendorf-Horneck,Bayern
07099,2004-11-01T00:00:00.000000+0000,2021-10-04T00:00:00.000000+0000,52.0111,10.3966,187.0000,Liebenburg-Othfresen,Niedersachsen
07105,2005-06-01T00:00:00.000000+0000,2024-03-23T00:00:00.000000+0000,47.8350,12.6548,719.0000,Siegsdorf-Höll,Bayern
07106,2006-09-01T00:00:00.000000+0000,2024-03-23T00:00:00.000000+0000,52.0714,8.4565,105.0000,Bielefeld-Deppendorf,Nordrhein-Westfalen
07187,2004-12-01T00:00:00.000000+0000,2024-03-23T00:00:00.000000+0000,49.7636,9.4063,194.0000,Freudenberg/Main-Boxtal,Baden-Württemberg
07298,2005-07-01T00:00:00.000000+0000,2024-03-23T00:00:00.000000+0000,54.5268,9.0425,4.0000,Hattstedt,Schleswig-Holstein
07319,2005-03-01T00:00:00.000000+0000,2024-03-23T00:00:00.000000+0000,48.7374,10.7393,435.0000,Donauwörth-Osterweiler,Bayern
07321,2005-09-01T00:00:00.000000+0000,2024-03-23T00:00:00.000000+0000,51.1507,11.3321,160.0000,Olbersleben,Thüringen
07329,2005-11-01T00:00:00.000000+0000,2024-03-23T00:00:00.000000+0000,50.5467,12.2863,465.0000,Treuen,Sachsen
07330,2005-10-01T00:00:00.000000+0000,2024-03-23T00:00:00.000000+0000,51.4633,7.9780,159.0000,Arnsberg-Neheim,Nordrhein-Westfalen
07331,2005-09-01T00:00:00.000000+0000,2024-03-23T00:00:00.000000+0000,48.6099,10.2674,467.0000,Hermaringen-Allewind,Baden-Württemberg
07341,2005-07-15T00:00:00.000000+0000,2024-03-23T00:00:00.000000+0000,50.0900,8.7862,119.0000,Offenbach-Wetterpark,Hessen
07343,2006-04-01T00:00:00.000000+0000,2024-03-23T00:00:00.000000+0000,50.6200,13.4817,689.0000,Deutschneudorf-Brüderwiese,Sachsen
07350,2006-08-01T00:00:00.000000+0000,2024-03-23T00:00:00.000000+0000,49.1088,12.8231,585.0000,Prackenbach-Neuhäusl,Bayern
07351,2005-09-08T00:00:00.000000+0000,2024-03-23T00:00:00.000000+0000,53.3176,13.4175,115.0000,Feldberg/Mecklenburg,Mecklenburg-Vorpommern
07364,2007-01-01T00:00:00.000000+0000,2024-03-23T00:00:00.000000+0000,51.6818,12.3053,74.0000,Jeßnitz,Sachsen-Anhalt
07367,2007-12-01T00:00:00.000000+0000,2024-03-23T00:00:00.000000+0000,51.9643,9.8072,144.0000,Alfeld,Niedersachsen
07368,2007-11-01T00:00:00.000000+0000,2024-03-23T00:00:00.000000+0000,51.0007,10.3621,312.0000,Eisenach,Thüringen
07369,2007-11-01T00:00:00.000000+0000,2024-03-23T00:00:00.000000+0000,49.1623,10.3661,475.0000,Feuchtwangen-Heilbronn,Bayern
07370,2006-12-11T00:00:00.000000+0000,2024-03-23T00:00:00.000000+0000,49.3910,12.6838,499.0000,Waldmünchen,Bayern
07373,2006-03-01T00:00:00.000000+0000,2024-03-23T00:00:00.000000+0000,53.5984,6.7024,3.0000,Borkum-Flugplatz,Niedersachsen
07374,2006-03-01T00:00:00.000000+0000,2024-03-23T00:00:00.000000+0000,52.0813,6.9409,46.0000,Ahaus,Nordrhein-Westfalen
07389,2006-12-01T00:00:00.000000+0000,2024-03-23T00:00:00.000000+0000,52.7461,13.8427,83.0000,Heckelberg,Brandenburg
07393,2010-01-01T00:00:00.000000+0000,2024-03-23T00:00:00.000000+0000,51.4492,14.2533,116.0000,Hoyerswerda,Sachsen
07394,2006-06-01T00:00:00.000000+0000,2024-03-23T00:00:00.000000+0000,50.0315,11.9745,622.0000,Wunsiedel-Schönbrunn,Bayern
07395,2007-12-01T00:00:00.000000+0000,2024-03-23T00:00:00.000000+0000,48.6595,12.5388,351.0000,Gottfrieding,Bayern
07396,2008-05-01T00:00:00.000000+0000,2024-03-23T00:00:00.000000+0000,50.5084,9.2246,740.0000,Hoherodskopf/Vogelsberg,Hessen
07403,2007-03-30T00:00:00.000000+0000,2024-03-23T00:00:00.000000+0000,47.7955,10.0325,672.0000,Leutkirch-Herlazhofen,Baden-Württemberg
07410,2011-02-01T00:00:00.000000+0000,2024-03-23T00:00:00.000000+0000,50.7513,9.0224,350.0000,Neu-Ulrichstein,Hessen
07412,2006-10-01T00:00:00.000000+0000,2024-03-23T00:00:00.000000+0000,50.0083,9.4238,340.0000,Neuhütten/Spessart,Bayern
07419,2006-12-01T00:00:00.000000+0000,2024-03-23T00:00:00.000000+0000,50.6610,12.0756,389.0000,Langenwetzendorf-Göttendorf,Thüringen
07420,2007-04-01T00:00:00.000000+0000,2024-03-23T00:00:00.000000+0000,51.1044,11.7112,246.0000,Naumburg/Saale-Kreipitzsch,Sachsen-Anhalt
07424,2006-12-01T00:00:00.000000+0000,2024-03-23T00:00:00.000000+0000,47.7724,12.9073,457.0000,Piding,Bayern
07427,2007-09-01T00:00:00.000000+0000,2024-03-23T00:00:00.000000+0000,54.0188,9.9255,17.0000,Padenstedt (Pony-Park),Schleswig-Holstein
07428,2007-05-01T00:00:00.000000+0000,2024-03-23T00:00:00.000000+0000,50.4167,10.8156,397.0000,Veilsdorf,Thüringen
07431,2007-11-01T00:00:00.000000+0000,2024-03-23T00:00:00.000000+0000,48.0130,11.5524,604.0000,Oberhaching-Laufzorn,Bayern
07432,2007-05-01T00:00:00.000000+0000,2024-03-23T00:00:00.000000+0000,52.6423,10.6628,71.0000,Wittingen-Vorhop,Niedersachsen
13670,2007-06-01T00:00:00.000000+0000,2024-03-23T00:00:00.000000+0000,51.5088,6.7018,24.0000,Duisburg-Baerl,Nordrhein-Westfalen
13674,2007-08-01T00:00:00.000000+0000,2024-03-23T00:00:00.000000+0000,49.2943,8.9053,237.0000,Waibstadt,Baden-Württemberg
13675,2007-11-01T00:00:00.000000+0000,2024-03-23T00:00:00.000000+0000,52.0818,9.4077,75.0000,Hameln-Hastenbeck,Niedersachsen
13696,2007-12-01T00:00:00.000000+0000,2024-03-23T00:00:00.000000+0000,51.5966,7.4048,60.0000,Waltrop-Abdinghof,Nordrhein-Westfalen
13700,2008-05-01T00:00:00.000000+0000,2024-03-23T00:00:00.000000+0000,51.3329,7.3412,203.0000,Gevelsberg-Oberbröking,Nordrhein-Westfalen
13710,2008-04-01T00:00:00.000000+0000,2024-03-23T00:00:00.000000+0000,48.5734,12.2576,490.0000,Landshut-Reithof,Bayern
13711,2007-12-01T00:00:00.000000+0000,2024-03-23T00:00:00.000000+0000,50.6820,11.5150,289.0000,Krölpa-Rockendorf,Thüringen
13713,2007-11-01T00:00:00.000000+0000,2024-03-23T00:00:00.000000+0000,51.0899,7.6289,386.0000,Meinerzhagen-Redlendorf,Nordrhein-Westfalen
13777,2008-06-01T00:00:00.000000+0000,2024-03-23T00:00:00.000000+0000,52.2467,10.9592,109.0000,Helmstedt-Emmerstedt,Niedersachsen
13965,2008-12-01T00:00:00.000000+0000,2024-03-23T00:00:00.000000+0000,48.2639,8.8134,619.0000,Balingen-Bronnhaupten,Baden-Württemberg
15000,2011-04-01T00:00:00.000000+0000,2024-03-23T00:00:00.000000+0000,50.7983,6.0244,231.0000,Aachen-Orsbach,Nordrhein-Westfalen
15207,2013-11-01T00:00:00.000000+0000,2024-03-23T00:00:00.000000+0000,51.2835,9.3590,317.0000,Schauenburg-Elgershausen,Hessen
15444,2014-09-01T00:00:00.000000+0000,2024-03-23T00:00:00.000000+0000,48.4418,9.9216,593.0000,Ulm-Mähringen,Baden-Württemberg
15555,2016-05-01T00:00:00.000000+0000,2024-03-23T00:00:00.000000+0000,47.8761,10.5849,815.0000,Kaufbeuren-Oberbeuren,Bayern
15813,2022-03-01T00:00:00.000000+0000,2024-03-23T00:00:00.000000+0000,52.5126,7.4131,40.0000,Lingen-Baccum,Niedersachsen
19171,2020-09-01T00:00:00.000000+0000,2024-03-23T00:00:00.000000+0000,54.0039,9.8555,13.0000,Hasenkrug-Hardebek,Schleswig-Holstein
19172,2020-09-01T00:00:00.000000+0000,2024-03-23T00:00:00.000000+0000,54.0246,9.3880,48.0000,Wacken,Schleswig-Holstein
19207,2023-04-01T00:00:00.000000+0000,2024-03-23T00:00:00.000000+0000,53.8178,12.0645,16.0000,Gülzow-Prüzen,Mecklenburg-Vorpommern
