[{"station_id":"00044","start_date":"1969-01-01T00:00:00+00:00","end_date":"2024-03-20T00:00:00+00:00","latitude":52.9336,"longitude":8.237,"height":44.0,"name":"Großenkneten","state":"Niedersachsen"},{"station_id":"00073","start_date":"1959-03-01T00:00:00+00:00","end_date":"2024-03-20T00:00:00+00:00","latitude":48.6183,"longitude":13.062,"height":374.0,"name":"Aldersbach-Kramersepp","state":"Bayern"},{"station_id":"00078","start_date":"1961-01-01T00:00:00+00:00","end_date":"2024-03-20T00:00:00+00:00","latitude":52.4853,"longitude":7.9125,"height":64.0,"name":"Alfhausen","state":"Niedersachsen"},{"station_id":"00091","start_date":"1978-11-01T00:00:00+00:00","end_date":"2024-03-20T00:00:00+00:00","latitude":50.7446,"longitude":9.345,"height":300.0,"name":"Alsfeld-Eifa","state":"Hessen"},{"station_id":"00096","start_date":"2019-04-09T00:00:00+00:00","end_date":"2024-03-20T00:00:00+00:00","latitude":52.9437,"longitude":12.8518,"height":50.0,"name":"Neuruppin-Alt Ruppin","state":"Brandenburg"},{"station_id":"00102","start_date":"1998-01-01T00:00:00+00:00","end_date":"2024-03-20T00:00:00+00:00","latitude":53.8633,"longitude":8.1275,"height":0.0,"name":"Leuchtturm Alte Weser","state":"Niedersachsen"},{"station_id":"00125","start_date":"1974-03-01T00:00:00+00:00","end_date":"2024-03-20T00:00:00+00:00","latitude":47.8342,"longitude":10.8667,"height":742.0,"name":"Altenstadt","state":"Bayern"},{"station_id":"00131","start_date":"2004-11-01T00:00:00+00:00","end_date":"2024-03-20T00:00:00+00:00","latitude":51.0881,"longitude":12.9326,"height":296.0,"name":"Geringswalde-Altgeringswalde","state":"Sachsen"},{"station_id":"00142","start_date":"1955-01-01T00:00:00+00:00","end_date":"2024-03-20T00:00:00+00:00","latitude":48.406,"longitude":11.3117,"height":511.0,"name":"Altomünster-Maisbrunn","state":"Bayern"},{"station_id":"00150","start_date":"1951-01-01T00:00:00+00:00","end_date":"2024-03-20T00:00:00+00:00","latitude":49.7273,"longitude":8.1164,"height":215.0,"name":"Alzey","state":"Rheinland-Pfalz"},{"station_id":"00151","start_date":"1947-01-01T00:00:00+00:00","end_date":"2024-03-20T00:00:00+00:00","latitude":49.4691,"longitude":11.8546,"height":382.0,"name":"Amberg-Unterammersricht","state":"Bayern"},{"station_id":"00154","start_date":"1994-01-01T00:00:00+00:00","end_date":"2024-03-20T00:00:00+00:00","latitude":48.0197,"longitude":12.2925,"height":516.0,"name":"Amerang-Pfaffing","state":"Bayern"},{"station_id":"00161","start_date":"1980-12-01T00:00:00+00:00","end_date":"2024-03-20T00:00:00+00:00","latitude":50.4237,"longitude":7.4202,"height":75.0,"name":"Andernach","state":"Rheinland-Pfalz"},{"station_id":"00164","start_date":"1908-05-17T00:00:00+00:00","end_date":"2024-03-20T00:00:00+00:00","latitude":53.0316,"longitude":13.9908,"height":54.0,"name":"Angermünde","state":"Brandenburg"},{"station_id":"00167","start_date":"2004-09-01T00:00:00+00:00","end_date":"2024-03-20T00:00:00+00:00","latitude":53.8409,"longitude":13.6854,"height":11.0,"name":"Anklam","state":"Mecklenburg-Vorpommern"},{"station_id":"00183","start_date":"1947-01-01T00:00:00+00:00","end_date":"2024-03-20T00:00:00+00:00","latitude":54.6791,"longitude":13.4344,"height":42.0,"name":"Arkona","state":"Mecklenburg-Vorpommern"},{"station_id":"00191","start_date":"1986-04-01T00:00:00+00:00","end_date":"2024-03-20T00:00:00+00:00","latitude":49.9694,"longitude":9.9114,"height":217.0,"name":"Arnstein-Müdesheim","state":"Bayern"},{"station_id":"00198","start_date":"1954-01-01T00:00:00+00:00","end_date":"2024-03-20T00:00:00+00:00","latitude":51.3744,"longitude":11.292,"height":164.0,"name":"Artern","state":"Thüringen"},{"station_id":"00217","start_date":"1941-01-01T00:00:00+00:00","end_date":"2024-03-20T00:00:00+00:00","latitude":47.8774,"longitude":11.3643,"height":670.0,"name":"Attenkam","state":"Bayern"},{"station_id":"00222","start_date":"1977-01-01T00:00:00+00:00","end_date":"2024-03-20T00:00:00+00:00","latitude":50.5908,"longitude":12.7139,"height":393.0,"name":"Aue","state":"Sachsen"},{"station_id":"00232","start_date":"1947-01-01T00:00:00+00:00","end_date":"2024-03-20T00:00:00+00:00","latitude":48.4253,"longitude":10.9417,"height":462.0,"name":"Augsburg","state":"Bayern"},{"station_id":"00257","start_date":"1949-01-01T00:00:00+00:00","end_date":"2024-03-20T00:00:00+00:00","latitude":48.727,"longitude":8.2457,"height":240.0,"name":"Baden-Baden-Geroldsau","state":"Baden-Württemberg"},{"station_id":"00259","start_date":"1947-01-01T00:00:00+00:00","end_date":"2024-03-20T00:00:00+00:00","latitude":47.8064,"longitude":7.6387,"height":275.0,"name":"Müllheim","state":"Baden-Württemberg"},{"station_id":"00282","start_date":"1949-01-01T00:00:00+00:00","end_date":"2024-03-20T00:00:00+00:00","latitude":49.8743,"longitude":10.9206,"height":240.0,"name":"Bamberg","state":"Bayern"},{"station_id":"00294","start_date":"1992-02-01T00:00:00+00:00","end_date":"2024-03-20T00:00:00+00:00","latitude":52.3199,"longitude":9.43,"height":110.0,"name":"Barsinghausen-Hohenbostel","state":"Niedersachsen"},{"station_id":"00298","start_date":"1947-01-01T00:00:00+00:00","end_date":"2024-03-20T00:00:00+00:00","latitude":54.3405,"longitude":12.7108,"height":3.0,"name":"Barth","state":"Mecklenburg-Vorpommern"},{"station_id":"00303","start_date":"1993-09-06T00:00:00+00:00","end_date":"2024-03-20T00:00:00+00:00","latitude":52.0613,"longitude":13.4997,"height":55.0,"name":"Baruth","state":"Brandenburg"},{"station_id":"00314","start_date":"1936-01-01T00:00:00+00:00","end_date":"2024-03-20T00:00:00+00:00","latitude":51.1604,"longitude":14.5042,"height":234.0,"name":"Kubschütz, Kr. Bautzen","state":"Sachsen"},{"station_id":"00320","start_date":"1879-01-01T00:00:00+00:00","end_date":"2024-03-20T00:00:00+00:00","latitude":49.9666,"longitude":11.5198,"height":350.0,"name":"Heinersreuth-Vollhof","state":"Bayern"},{"station_id":"00330","start_date":"1937-01-01T00:00:00+00:00","end_date":"2024-03-20T00:00:00+00:00","latitude":49.5617,"longitude":8.9673,"height":455.0,"name":"Oberzent-Beerfelden","state":"Hessen"},{"station_id":"00342","start_date":"2010-12-01T00:00:00+00:00","end_date":"2024-03-20T00:00:00+00:00","latitude":52.317,"longitude":8.1694,"height":103.0,"name":"Belm","state":"Niedersachsen"},{"station_id":"00368","start_date":"1973-01-01T00:00:00+00:00","end_date":"2024-03-20T00:00:00+00:00","latitude":52.8152,"longitude":9.9248,"height":69.0,"name":"Bergen","state":"Niedersachsen"},{"station_id":"00377","start_date":"1947-01-01T00:00:00+00:00","end_date":"2024-03-20T00:00:00+00:00","latitude":49.107,"longitude":7.9967,"height":210.0,"name":"Bergzabern, Bad","state":"Rheinland-Pfalz"},{"station_id":"00379","start_date":"1954-07-01T00:00:00+00:00","end_date":"2024-03-20T00:00:00+00:00","latitude":50.9075,"longitude":11.2665,"height":304.0,"name":"Berka, Bad (Flugplatz)","state":"Thüringen"},{"station_id":"00390","start_date":"1986-12-01T00:00:00+00:00","end_date":"2024-03-20T00:00:00+00:00","latitude":50.9837,"longitude":8.3683,"height":610.0,"name":"Berleburg, Bad-Stünzel","state":"Nordrhein-Westfalen"},{"station_id":"00400","start_date":"1961-01-01T00:00:00+00:00","end_date":"2024-03-20T00:00:00+00:00","latitude":52.631,"longitude":13.5021,"height":60.0,"name":"Berlin-Buch","state":"Berlin"},{"station_id":"00403","start_date":"1950-01-01T00:00:00+00:00","end_date":"2024-03-20T00:00:00+00:00","latitude":52.4537,"longitude":13.3017,"height":51.0,"name":"Berlin-Dahlem (FU)","state":"Berlin"},{"station_id":"00420","start_date":"1993-05-01T00:00:00+00:00","end_date":"2023-08-06T00:00:00+00:00","latitude":52.5447,"longitude":13.5598,"height":61.0,"name":"Berlin-Marzahn","state":"Berlin"},{"station_id":"00427","start_date":"1957-01-01T00:00:00+00:00","end_date":"2024-03-20T00:00:00+00:00","latitude":52.3807,"longitude":13.5306,"height":46.0,"name":"Berlin Brandenburg","state":"Brandenburg"},{"station_id":"00430","start_date":"1963-01-01T00:00:00+00:00","end_date":"2021-05-05T00:00:00+00:00","latitude":52.5644,"longitude":13.3088,"height":36.0,"name":"Berlin-Tegel","state":"Berlin"},{"station_id":"00433","start_date":"1948-01-01T00:00:00+00:00","end_date":"2024-03-20T00:00:00+00:00","latitude":52.4676,"longitude":13.402,"height":48.0,"name":"Berlin-Tempelhof","state":"Berlin"},{"station_id":"00445","start_date":"1898-01-01T00:00:00+00:00","end_date":"2024-03-20T00:00:00+00:00","latitude":51.8218,"longitude":11.711,"height":85.0,"name":"Bernburg/Saale (Nord)","state":"Sachsen-Anhalt"},{"station_id":"00460","start_date":"1951-01-01T00:00:00+00:00","end_date":"2024-03-20T00:00:00+00:00","latitude":49.2641,"longitude":6.6868,"height":362.0,"name":"Berus","state":"Saarland"},{"station_id":"00535","start_date":"1947-01-01T00:00:00+00:00","end_date":"2024-03-20T00:00:00+00:00","latitude":50.0372,"longitude":7.3079,"height":417.0,"name":"Blankenrath","state":"Rheinland-Pfalz"},{"station_id":"00555","start_date":"1940-01-01T00:00:00+00:00","end_date":"2024-03-20T00:00:00+00:00","latitude":51.5026,"longitude":7.2289,"height":110.0,"name":"Bochum","state":"Nordrhein-Westfalen"},{"station_id":"00591","start_date":"1947-01-01T00:00:00+00:00","end_date":"2024-03-20T00:00:00+00:00","latitude":53.3911,"longitude":10.6878,"height":45.0,"name":"Boizenburg","state":"Mecklenburg-Vorpommern"},{"station_id":"00596","start_date":"1947-01-01T00:00:00+00:00","end_date":"2024-03-20T00:00:00+00:00","latitude":54.0027,"longitude":11.1908,"height":15.0,"name":"Boltenhagen","state":"Mecklenburg-Vorpommern"},{"station_id":"00603","start_date":"1986-08-01T00:00:00+00:00","end_date":"2024-03-20T00:00:00+00:00","latitude":50.7293,"longitude":7.204,"height":147.0,"name":"Königswinter-Heiderhof","state":"Nordrhein-Westfalen"},{"station_id":"00617","start_date":"2004-06-01T00:00:00+00:00","end_date":"2024-03-20T00:00:00+00:00","latitude":51.873,"longitude":6.8863,"height":47.0,"name":"Borken in Westfalen","state":"Nordrhein-Westfalen"},{"station_id":"00656","start_date":"1931-01-01T00:00:00+00:00","end_date":"2024-03-20T00:00:00+00:00","latitude":51.7234,"longitude":10.6021,"height":607.0,"name":"Braunlage","state":"Niedersachsen"},{"station_id":"00662","start_date":"1961-01-01T00:00:00+00:00","end_date":"2024-03-20T00:00:00+00:00","latitude":52.2915,"longitude":10.4464,"height":81.0,"name":"Braunschweig","state":"Niedersachsen"},{"station_id":"00691","start_date":"1890-01-01T00:00:00+00:00","end_date":"2024-03-20T00:00:00+00:00","latitude":53.0451,"longitude":8.7981,"height":4.0,"name":"Bremen","state":"Bremen"},{"station_id":"00701","start_date":"1949-01-01T00:00:00+00:00","end_date":"2024-03-20T00:00:00+00:00","latitude":53.5332,"longitude":8.5761,"height":7.0,"name":"Bremerhaven","state":"Bremen"},{"station_id":"00704","start_date":"1979-04-01T00:00:00+00:00","end_date":"2024-03-20T00:00:00+00:00","latitude":53.4451,"longitude":9.139,"height":11.0,"name":"Bremervörde","state":"Niedersachsen"},{"station_id":"00722","start_date":"1896-01-01T00:00:00+00:00","end_date":"2024-03-20T00:00:00+00:00","latitude":51.7986,"longitude":10.6183,"height":1135.0,"name":"Brocken","state":"Sachsen-Anhalt"},{"station_id":"00755","start_date":"1935-01-01T00:00:00+00:00","end_date":"2024-03-20T00:00:00+00:00","latitude":49.5182,"longitude":9.3213,"height":340.0,"name":"Buchen, Kr. Neckar-Odenwald","state":"Baden-Württemberg"},{"station_id":"00757","start_date":"1990-10-01T00:00:00+00:00","end_date":"2024-03-20T00:00:00+00:00","latitude":47.9625,"longitude":7.9983,"height":445.0,"name":"Buchenbach","state":"Baden-Württemberg"},{"station_id":"00760","start_date":"1976-06-01T00:00:00+00:00","end_date":"2024-03-20T00:00:00+00:00","latitude":53.3629,"longitude":9.9435,"height":83.0,"name":"Rosengarten-Klecken","state":"Niedersachsen"},{"station_id":"00766","start_date":"1965-01-01T00:00:00+00:00","end_date":"2024-03-20T00:00:00+00:00","latitude":50.1745,"longitude":7.0595,"height":477.0,"name":"Büchel-Alflen","state":"Rheinland-Pfalz"},{"station_id":"00769","start_date":"1972-01-01T00:00:00+00:00","end_date":"2024-03-20T00:00:00+00:00","latitude":52.2817,"longitude":9.089,"height":68.0,"name":"Bückeburg","state":"Niedersachsen"},{"station_id":"00817","start_date":"1952-10-01T00:00:00+00:00","end_date":"2024-03-20T00:00:00+00:00","latitude":51.0306,"longitude":8.8146,"height":293.0,"name":"Burgwald-Bottendorf","state":"Hessen"},{"station_id":"00840","start_date":"1989-12-01T00:00:00+00:00","end_date":"2024-03-20T00:00:00+00:00","latitude":50.4313,"longitude":12.6114,"height":895.0,"name":"Carlsfeld","state":"Sachsen"},{"station_id":"00850","start_date":"1974-08-01T00:00:00+00:00","end_date":"2024-03-20T00:00:00+00:00","latitude":52.5959,"longitude":10.0296,"height":45.0,"name":"Celle","state":"Niedersachsen"},{"station_id":"00853","start_date":"1882-01-01T00:00:00+00:00","end_date":"2024-03-20T00:00:00+00:00","latitude":50.7913,"longitude":12.872,"height":416.0,"name":"Chemnitz","state":"Sachsen"},{"station_id":"00856","start_date":"1998-01-01T00:00:00+00:00","end_date":"2024-03-20T00:00:00+00:00","latitude":47.8843,"longitude":12.5404,"height":551.0,"name":"Chieming","state":"Bayern"},{"station_id":"00860","start_date":"2023-10-01T00:00:00+00:00","end_date":"2024-03-20T00:00:00+00:00","latitude":52.2731,"longitude":10.0163,"height":80.0,"name":"Algermissen-Groß Lobke","state":"Niedersachsen"},{"station_id":"00867","start_date":"1947-01-01T00:00:00+00:00","end_date":"2024-03-20T00:00:00+00:00","latitude":50.3066,"longitude":10.9679,"height":344.0,"name":"Lautertal-Oberlauter","state":"Bayern"},{"station_id":"00880","start_date":"1887-01-01T00:00:00+00:00","end_date":"2024-03-20T00:00:00+00:00","latitude":51.7759,"longitude":14.3168,"height":69.0,"name":"Cottbus","state":"Brandenburg"},{"station_id":"00891","start_date":"1946-01-01T00:00:00+00:00","end_date":"2024-03-20T00:00:00+00:00","latitude":53.8713,"longitude":8.706,"height":5.0,"name":"Cuxhaven","state":"Niedersachsen"},{"station_id":"00896","start_date":"1949-07-01T00:00:00+00:00","end_date":"2024-03-20T00:00:00+00:00","latitude":51.0778,"longitude":10.8619,"height":170.0,"name":"Dachwig","state":"Thüringen"},{"station_id":"00917","start_date":"1995-08-01T00:00:00+00:00","end_date":"2024-03-20T00:00:00+00:00","latitude":49.8809,"longitude":8.6779,"height":162.0,"name":"Darmstadt","state":"Hessen"},{"station_id":"00953","start_date":"1950-08-01T00:00:00+00:00","end_date":"2024-03-20T00:00:00+00:00","latitude":49.7619,"longitude":7.0542,"height":481.0,"name":"Deuselbach","state":"Rheinland-Pfalz"},{"station_id":"00954","start_date":"1998-01-01T00:00:00+00:00","end_date":"2024-03-20T00:00:00+00:00","latitude":54.1796,"longitude":7.4587,"height":0.0,"name":"UFS Deutsche Bucht","state":"Hamburg"},{"station_id":"00963","start_date":"1952-09-01T00:00:00+00:00","end_date":"2024-03-20T00:00:00+00:00","latitude":52.5881,"longitude":8.3424,"height":38.0,"name":"Diepholz","state":"Niedersachsen"},{"station_id":"00979","start_date":"1947-08-01T00:00:00+00:00","end_date":"2023-03-13T00:00:00+00:00","latitude":50.7364,"longitude":8.2672,"height":314.0,"name":"Dillenburg","state":"Hessen"},{"station_id":"00983","start_date":"2006-12-01T00:00:00+00:00","end_date":"2024-03-20T00:00:00+00:00","latitude":48.5562,"longitude":10.5599,"height":419.0,"name":"Dillingen/Donau-Fristingen","state":"Bayern"},{"station_id":"00991","start_date":"1954-09-01T00:00:00+00:00","end_date":"2024-03-20T00:00:00+00:00","latitude":50.9116,"longitude":13.7087,"height":359.0,"name":"Dippoldiswalde-Reinberg","state":"Sachsen"},{"station_id":"01001","start_date":"1948-07-01T00:00:00+00:00","end_date":"2024-03-20T00:00:00+00:00","latitude":51.6451,"longitude":13.5747,"height":97.0,"name":"Doberlug-Kirchhain","state":"Brandenburg"},{"station_id":"01048","start_date":"1934-01-01T00:00:00+00:00","end_date":"2024-03-20T00:00:00+00:00","latitude":51.1278,"longitude":13.7543,"height":228.0,"name":"Dresden-Klotzsche","state":"Sachsen"},{"station_id":"01050","start_date":"1949-01-01T00:00:00+00:00","end_date":"2024-03-20T00:00:00+00:00","latitude":51.0221,"longitude":13.847,"height":112.0,"name":"Dresden-Hosterwitz","state":"Sachsen"},{"station_id":"01051","start_date":"1936-01-01T00:00:00+00:00","end_date":"2023-10-03T00:00:00+00:00","latitude":51.0249,"longitude":13.775,"height":119.0,"name":"Dresden-Strehlen","state":"Sachsen"},{"station_id":"01052","start_date":"1993-05-01T00:00:00+00:00","end_date":"2024-03-20T00:00:00+00:00","latitude":52.2174,"longitude":12.1641,"height":80.0,"name":"Möckern-Drewitz","state":"Sachsen-Anhalt"},{"station_id":"01072","start_date":"1952-01-01T00:00:00+00:00","end_date":"2024-03-20T00:00:00+00:00","latitude":49.4719,"longitude":8.1929,"height":107.0,"name":"Dürkheim, Bad","state":"Rheinland-Pfalz"},{"station_id":"01078","start_date":"1952-01-01T00:00:00+00:00","end_date":"2024-03-20T00:00:00+00:00","latitude":51.296,"longitude":6.7686,"height":37.0,"name":"Düsseldorf","state":"Nordrhein-Westfalen"},{"station_id":"01103","start_date":"1978-01-01T00:00:00+00:00","end_date":"2024-03-20T00:00:00+00:00","latitude":48.1003,"longitude":11.9872,"height":592.0,"name":"Ebersberg-Halbing","state":"Bayern"},{"station_id":"01107","start_date":"1963-01-01T00:00:00+00:00","end_date":"2024-03-20T00:00:00+00:00","latitude":49.852,"longitude":10.4991,"height":346.0,"name":"Ebrach","state":"Bayern"},{"station_id":"01161","start_date":"1955-01-01T00:00:00+00:00","end_date":"2024-03-20T00:00:00+00:00","latitude":48.8777,"longitude":11.2349,"height":384.0,"name":"Eichstätt-Landershofen","state":"Bayern"},{"station_id":"01197","start_date":"1941-01-01T00:00:00+00:00","end_date":"2024-03-20T00:00:00+00:00","latitude":48.9895,"longitude":10.1312,"height":463.0,"name":"Ellwangen-Rindelbach","state":"Baden-Württemberg"},{"station_id":"01200","start_date":"1998-01-01T00:00:00+00:00","end_date":"2024-03-20T00:00:00+00:00","latitude":54.0691,"longitude":9.0105,"height":3.0,"name":"Elpersbüttel","state":"Schleswig-Holstein"},{"station_id":"01207","start_date":"1948-06-01T00:00:00+00:00","end_date":"2024-03-20T00:00:00+00:00","latitude":50.2705,"longitude":12.2742,"height":558.0,"name":"Elster, Bad-Sohl","state":"Sachsen"},{"station_id":"01214","start_date":"1987-11-01T00:00:00+00:00","end_date":"2024-03-20T00:00:00+00:00","latitude":48.2012,"longitude":8.1088,"height":431.0,"name":"Elzach-Fisnacht","state":"Baden-Württemberg"},{"station_id":"01224","start_date":"1975-11-01T00:00:00+00:00","end_date":"2024-03-20T00:00:00+00:00","latitude":48.1378,"longitude":7.8351,"height":201.0,"name":"Emmendingen-Mundingen","state":"Baden-Württemberg"},{"station_id":"01228","start_date":"2000-07-01T00:00:00+00:00","end_date":"2024-03-20T00:00:00+00:00","latitude":54.1651,"longitude":6.346,"height":0.0,"name":"UFS TW Ems","state":"Hamburg"},{"station_id":"01246","start_date":"2015-08-01T00:00:00+00:00","end_date":"2024-03-20T00:00:00+00:00","latitude":51.8418,"longitude":8.0607,"height":104.0,"name":"Ennigerloh-Ostenfelde","state":"Nordrhein-Westfalen"},{"station_id":"01255","start_date":"2002-12-01T00:00:00+00:00","end_date":"2024-03-20T00:00:00+00:00","latitude":49.1661,"longitude":8.8483,"height":226.0,"name":"Eppingen-Elsenz","state":"Baden-Württemberg"},{"station_id":"01262","start_date":"1992-05-17T00:00:00+00:00","end_date":"2024-03-20T00:00:00+00:00","latitude":48.3477,"longitude":11.8134,"height":446.0,"name":"München-Flughafen","state":"Bayern"},{"station_id":"01266","start_date":"1964-05-01T00:00:00+00:00","end_date":"2024-03-20T00:00:00+00:00","latitude":54.2992,"longitude":9.3162,"height":18.0,"name":"Erfde","state":"Schleswig-Holstein"},{"station_id":"01270","start_date":"1951-01-01T00:00:00+00:00","end_date":"2024-03-20T00:00:00+00:00","latitude":50.9829,"longitude":10.9608,"height":316.0,"name":"Erfurt-Weimar","state":"Thüringen"},{"station_id":"01279","start_date":"1949-01-01T00:00:00+00:00","end_date":"2024-03-20T00:00:00+00:00","latitude":49.6497,"longitude":11.0075,"height":268.0,"name":"Möhrendorf-Kleinseebach","state":"Bayern"},{"station_id":"01297","start_date":"1947-09-01T00:00:00+00:00","end_date":"2024-03-20T00:00:00+00:00","latitude":51.2041,"longitude":10.0138,"height":156.0,"name":"Eschwege","state":"Hessen"},{"station_id":"01300","start_date":"1938-01-01T00:00:00+00:00","end_date":"2024-03-20T00:00:00+00:00","latitude":51.254,"longitude":8.1565,"height":351.0,"name":"Eslohe","state":"Nordrhein-Westfalen"},{"station_id":"01303","start_date":"1935-01-01T00:00:00+00:00","end_date":"2024-03-20T00:00:00+00:00","latitude":51.4041,"longitude":6.9677,"height":150.0,"name":"Essen-Bredeney","state":"Nordrhein-Westfalen"},{"station_id":"01327","start_date":"1937-01-01T00:00:00+00:00","end_date":"2024-03-20T00:00:00+00:00","latitude":50.7119,"longitude":6.7905,"height":147.0,"name":"Weilerswist-Lommersum","state":"Nordrhein-Westfalen"},{"station_id":"01332","start_date":"1966-07-01T00:00:00+00:00","end_date":"2024-03-20T00:00:00+00:00","latitude":48.4832,"longitude":12.7241,"height":471.0,"name":"Falkenberg,Kr.Rottal-Inn","state":"Bayern"},{"station_id":"01339","start_date":"1971-01-01T00:00:00+00:00","end_date":"2024-03-20T00:00:00+00:00","latitude":52.9157,"longitude":10.1885,"height":76.0,"name":"Faßberg","state":"Niedersachsen"},{"station_id":"01346","start_date":"1945-01-01T00:00:00+00:00","end_date":"2024-03-20T00:00:00+00:00","latitude":47.8748,"longitude":8.0038,"height":1486.0,"name":"Feldberg/Schwarzwald","state":"Baden-Württemberg"},{"station_id":"01357","start_date":"1948-01-01T00:00:00+00:00","end_date":"2024-03-20T00:00:00+00:00","latitude":49.9807,"longitude":11.8376,"height":655.0,"name":"Fichtelberg/Oberfranken-Hüttstadl","state":"Bayern"},{"station_id":"01358","start_date":"1890-08-01T00:00:00+00:00","end_date":"2024-03-20T00:00:00+00:00","latitude":50.4283,"longitude":12.9536,"height":1213.0,"name":"Fichtelberg","state":"Sachsen"},{"station_id":"01411","start_date":"1949-10-01T00:00:00+00:00","end_date":"2024-03-20T00:00:00+00:00","latitude":50.5309,"longitude":10.0479,"height":747.0,"name":"Birx/Rhön","state":"Thüringen"},{"station_id":"01420","start_date":"1949-01-01T00:00:00+00:00","end_date":"2024-03-20T00:00:00+00:00","latitude":50.0259,"longitude":8.5213,"height":100.0,"name":"Frankfurt/Main","state":"Hessen"},{"station_id":"01424","start_date":"1985-11-01T00:00:00+00:00","end_date":"2024-03-20T00:00:00+00:00","latitude":50.1269,"longitude":8.6694,"height":121.0,"name":"Frankfurt/Main-Westend","state":"Hessen"},{"station_id":"01443","start_date":"1874-01-01T00:00:00+00:00","end_date":"2024-03-20T00:00:00+00:00","latitude":48.0232,"longitude":7.8343,"height":237.0,"name":"Freiburg","state":"Baden-Württemberg"},{"station_id":"01451","start_date":"1970-11-01T00:00:00+00:00","end_date":"2024-03-20T00:00:00+00:00","latitude":53.8277,"longitude":9.2493,"height":2.0,"name":"Freiburg/Elbe","state":"Niedersachsen"},{"station_id":"01468","start_date":"1949-01-01T00:00:00+00:00","end_date":"2024-03-20T00:00:00+00:00","latitude":48.4538,"longitude":8.409,"height":797.0,"name":"Freudenstadt","state":"Baden-Württemberg"},{"station_id":"01503","start_date":"1947-02-01T00:00:00+00:00","end_date":"2024-03-20T00:00:00+00:00","latitude":53.0643,"longitude":7.902,"height":6.0,"name":"Friesoythe-Altenoythe","state":"Niedersachsen"},{"station_id":"01504","start_date":"2000-07-01T00:00:00+00:00","end_date":"2024-03-20T00:00:00+00:00","latitude":51.119,"longitude":9.2799,"height":172.0,"name":"Fritzlar/Eder","state":"Hessen"},{"station_id":"01526","start_date":"1885-01-01T00:00:00+00:00","end_date":"2024-03-20T00:00:00+00:00","latitude":50.5668,"longitude":9.6532,"height":242.0,"name":"Fulda-Horas","state":"Hessen"},{"station_id":"01544","start_date":"1947-01-01T00:00:00+00:00","end_date":"2024-03-20T00:00:00+00:00","latitude":52.5129,"longitude":11.3942,"height":47.0,"name":"Gardelegen","state":"Sachsen-Anhalt"},{"station_id":"01550","start_date":"1936-01-01T00:00:00+00:00","end_date":"2024-03-20T00:00:00+00:00","latitude":47.483,"longitude":11.0621,"height":719.0,"name":"Garmisch-Partenkirchen","state":"Bayern"},{"station_id":"01572","start_date":"1982-12-01T00:00:00+00:00","end_date":"2024-03-20T00:00:00+00:00","latitude":50.9593,"longitude":6.0392,"height":80.0,"name":"Geilenkirchen-Neutevern","state":"Nordrhein-Westfalen"},{"station_id":"01580","start_date":"1884-07-01T00:00:00+00:00","end_date":"2024-03-20T00:00:00+00:00","latitude":49.9859,"longitude":7.9548,"height":111.0,"name":"Geisenheim","state":"Hessen"},{"station_id":"01584","start_date":"2009-06-01T00:00:00+00:00","end_date":"2024-03-20T00:00:00+00:00","latitude":47.9242,"longitude":8.6474,"height":673.0,"name":"Geisingen","state":"Baden-Württemberg"},{"station_id":"01587","start_date":"1998-01-01T00:00:00+00:00","end_date":"2024-03-20T00:00:00+00:00","latitude":48.9481,"longitude":11.4289,"height":536.0,"name":"Gelbelsee","state":"Bayern"},{"station_id":"01590","start_date":"1963-10-01T00:00:00+00:00","end_date":"2024-03-20T00:00:00+00:00","latitude":51.4942,"longitude":6.2463,"height":37.0,"name":"Geldern-Walbeck","state":"Nordrhein-Westfalen"},{"station_id":"01602","start_date":"1970-01-01T00:00:00+00:00","end_date":"2024-03-20T00:00:00+00:00","latitude":48.433,"longitude":7.993,"height":177.0,"name":"Ohlsbach","state":"Baden-Württemberg"},{"station_id":"01605","start_date":"1953-01-01T00:00:00+00:00","end_date":"2024-03-20T00:00:00+00:00","latitude":52.3875,"longitude":12.1602,"height":35.0,"name":"Genthin","state":"Sachsen-Anhalt"},{"station_id":"01612","start_date":"1952-01-01T00:00:00+00:00","end_date":"2024-03-20T00:00:00+00:00","latitude":50.8812,"longitude":12.1289,"height":311.0,"name":"Gera-Leumnitz","state":"Thüringen"},{"station_id":"01639","start_date":"1939-01-01T00:00:00+00:00","end_date":"2024-03-20T00:00:00+00:00","latitude":50.6017,"longitude":8.6439,"height":203.0,"name":"Gießen/Wettenberg","state":"Hessen"},{"station_id":"01645","start_date":"1949-01-01T00:00:00+00:00","end_date":"2024-03-20T00:00:00+00:00","latitude":50.9656,"longitude":9.05,"height":340.0,"name":"Gilserberg-Moischeid","state":"Hessen"},{"station_id":"01666","start_date":"1971-01-01T00:00:00+00:00","end_date":"2024-03-20T00:00:00+00:00","latitude":54.8273,"longitude":9.5058,"height":12.0,"name":"Glücksburg-Meierwik","state":"Schleswig-Holstein"},{"station_id":"01684","start_date":"1860-01-01T00:00:00+00:00","end_date":"2024-03-20T00:00:00+00:00","latitude":51.1621,"longitude":14.9506,"height":239.0,"name":"Görlitz","state":"Sachsen"},{"station_id":"01691","start_date":"1927-01-01T00:00:00+00:00","end_date":"2024-03-20T00:00:00+00:00","latitude":51.5002,"longitude":9.9507,"height":167.0,"name":"Göttingen","state":"Niedersachsen"},{"station_id":"01694","start_date":"1947-01-01T00:00:00+00:00","end_date":"2024-03-20T00:00:00+00:00","latitude":53.6058,"longitude":12.1034,"height":59.0,"name":"Goldberg","state":"Mecklenburg-Vorpommern"},{"station_id":"01721","start_date":"1991-01-01T00:00:00+00:00","end_date":"2024-03-20T00:00:00+00:00","latitude":49.664,"longitude":11.2239,"height":506.0,"name":"Gräfenberg-Kasberg","state":"Bayern"},{"station_id":"01735","start_date":"1995-12-01T00:00:00+00:00","end_date":"2024-03-20T00:00:00+00:00","latitude":48.7894,"longitude":13.629,"height":628.0,"name":"Grainet-Rehberg","state":"Bayern"},{"station_id":"01736","start_date":"1951-01-01T00:00:00+00:00","end_date":"2024-03-20T00:00:00+00:00","latitude":53.5731,"longitude":10.6797,"height":26.0,"name":"Grambek","state":"Schleswig-Holstein"},{"station_id":"01757","start_date":"1898-03-01T00:00:00+00:00","end_date":"2024-03-20T00:00:00+00:00","latitude":54.0967,"longitude":13.4056,"height":2.0,"name":"Greifswald","state":"Mecklenburg-Vorpommern"},{"station_id":"01759","start_date":"1947-08-01T00:00:00+00:00","end_date":"2024-03-20T00:00:00+00:00","latitude":54.2437,"longitude":13.9102,"height":12.0,"name":"Greifswalder Oie","state":"Mecklenburg-Vorpommern"},{"station_id":"01766","start_date":"1982-01-01T00:00:00+00:00","end_date":"2024-03-20T00:00:00+00:00","latitude":52.1344,"longitude":7.6969,"height":48.0,"name":"Münster/Osnabrück","state":"Nordrhein-Westfalen"},{"station_id":"01792","start_date":"2020-08-14T00:00:00+00:00","end_date":"2024-03-20T00:00:00+00:00","latitude":52.7553,"longitude":7.4815,"height":27.0,"name":"Groß Berßen","state":"Niedersachsen"},{"station_id":"01803","start_date":"1967-01-01T00:00:00+00:00","end_date":"2024-03-20T00:00:00+00:00","latitude":54.0714,"longitude":12.3238,"height":35.0,"name":"Groß Lüsewitz","state":"Mecklenburg-Vorpommern"},{"station_id":"01832","start_date":"1982-11-01T00:00:00+00:00","end_date":"2024-03-20T00:00:00+00:00","latitude":49.1129,"longitude":13.1338,"height":1436.0,"name":"Großer Arber","state":"Bayern"},{"station_id":"01863","start_date":"1995-03-01T00:00:00+00:00","end_date":"2024-03-20T00:00:00+00:00","latitude":50.2667,"longitude":9.1854,"height":258.0,"name":"Gründau-Breitenborn","state":"Hessen"},{"station_id":"01869","start_date":"1973-01-01T00:00:00+00:00","end_date":"2024-03-20T00:00:00+00:00","latitude":53.3154,"longitude":13.9339,"height":56.0,"name":"Grünow","state":"Brandenburg"},{"station_id":"01886","start_date":"2009-11-26T00:00:00+00:00","end_date":"2024-03-20T00:00:00+00:00","latitude":48.4878,"longitude":10.2608,"height":444.0,"name":"Günzburg","state":"Bayern"},{"station_id":"01964","start_date":"1952-01-01T00:00:00+00:00","end_date":"2024-03-09T00:00:00+00:00","latitude":49.9445,"longitude":6.3821,"height":328.0,"name":"Olsdorf","state":"Rheinland-Pfalz"},{"station_id":"01975","start_date":"1936-01-01T00:00:00+00:00","end_date":"2024-03-20T00:00:00+00:00","latitude":53.6332,"longitude":9.9881,"height":11.0,"name":"Hamburg-Fuhlsbüttel","state":"Hamburg"},{"station_id":"01981","start_date":"1962-05-01T00:00:00+00:00","end_date":"2024-03-20T00:00:00+00:00","latitude":53.4776,"longitude":9.8957,"height":4.0,"name":"Hamburg-Neuwiedenthal","state":"Hamburg"},{"station_id":"02014","start_date":"1936-01-01T00:00:00+00:00","end_date":"2024-03-20T00:00:00+00:00","latitude":52.4644,"longitude":9.6779,"height":55.0,"name":"Hannover","state":"Niedersachsen"},{"station_id":"02023","start_date":"1998-01-01T00:00:00+00:00","end_date":"2024-03-20T00:00:00+00:00","latitude":48.7918,"longitude":10.7062,"height":501.0,"name":"Harburg","state":"Bayern"},{"station_id":"02039","start_date":"1936-01-01T00:00:00+00:00","end_date":"2024-03-20T00:00:00+00:00","latitude":51.9002,"longitude":10.5699,"height":203.0,"name":"Harzburg, Bad","state":"Niedersachsen"},{"station_id":"02044","start_date":"1945-05-01T00:00:00+00:00","end_date":"2024-03-20T00:00:00+00:00","latitude":51.652,"longitude":11.1366,"height":404.0,"name":"Harzgerode","state":"Sachsen-Anhalt"},{"station_id":"02074","start_date":"1947-01-01T00:00:00+00:00","end_date":"2024-03-20T00:00:00+00:00","latitude":48.3752,"longitude":8.98,"height":518.0,"name":"Hechingen","state":"Baden-Württemberg"},{"station_id":"02110","start_date":"1963-01-01T00:00:00+00:00","end_date":"2024-03-20T00:00:00+00:00","latitude":51.0411,"longitude":6.1042,"height":57.0,"name":"Heinsberg-Schleiden","state":"Nordrhein-Westfalen"},{"station_id":"02115","start_date":"1952-05-01T00:00:00+00:00","end_date":"2024-03-20T00:00:00+00:00","latitude":54.175,"longitude":7.892,"height":4.0,"name":"Helgoland","state":"Schleswig-Holstein"},{"station_id":"02171","start_date":"1949-01-01T00:00:00+00:00","end_date":"2024-03-20T00:00:00+00:00","latitude":50.852,"longitude":9.7377,"height":272.0,"name":"Hersfeld, Bad","state":"Hessen"},{"station_id":"02174","start_date":"1991-10-01T00:00:00+00:00","end_date":"2024-03-20T00:00:00+00:00","latitude":51.6255,"longitude":10.3695,"height":236.0,"name":"Herzberg","state":"Niedersachsen"},{"station_id":"02201","start_date":"1931-04-14T00:00:00+00:00","end_date":"2024-03-20T00:00:00+00:00","latitude":54.575,"longitude":13.1044,"height":1.0,"name":"Hiddensee-Vitte","state":"Mecklenburg-Vorpommern"},{"station_id":"02211","start_date":"1937-01-01T00:00:00+00:00","end_date":"2024-03-20T00:00:00+00:00","latitude":50.737,"longitude":7.6525,"height":295.0,"name":"Hilgenroth","state":"Rheinland-Pfalz"},{"station_id":"02252","start_date":"1947-01-01T00:00:00+00:00","end_date":"2024-03-20T00:00:00+00:00","latitude":50.8992,"longitude":14.7456,"height":271.0,"name":"Bertsdorf-Hörnitz","state":"Sachsen"},{"station_id":"02261","start_date":"1947-01-01T00:00:00+00:00","end_date":"2024-03-20T00:00:00+00:00","latitude":50.3123,"longitude":11.876,"height":565.0,"name":"Hof","state":"Bayern"},{"station_id":"02290","start_date":"1781-01-01T00:00:00+00:00","end_date":"2024-03-20T00:00:00+00:00","latitude":47.8009,"longitude":11.0108,"height":977.0,"name":"Hohenpeißenberg","state":"Bayern"},{"station_id":"02303","start_date":"1969-01-01T00:00:00+00:00","end_date":"2024-03-20T00:00:00+00:00","latitude":54.3162,"longitude":9.5385,"height":10.0,"name":"Hohn","state":"Schleswig-Holstein"},{"station_id":"02306","start_date":"1977-11-01T00:00:00+00:00","end_date":"2024-03-20T00:00:00+00:00","latitude":54.3194,"longitude":10.6732,"height":8.0,"name":"Hohwacht","state":"Schleswig-Holstein"},{"station_id":"02315","start_date":"2000-06-01T00:00:00+00:00","end_date":"2024-03-20T00:00:00+00:00","latitude":51.7657,"longitude":13.1666,"height":80.0,"name":"Holzdorf-Bernsdorf","state":"Brandenburg"},{"station_id":"02319","start_date":"1982-12-01T00:00:00+00:00","end_date":"2024-03-20T00:00:00+00:00","latitude":47.8823,"longitude":11.6961,"height":685.0,"name":"Holzkirchen","state":"Bayern"},{"station_id":"02323","start_date":"1951-01-01T00:00:00+00:00","end_date":"2024-03-20T00:00:00+00:00","latitude":51.8529,"longitude":9.4953,"height":110.0,"name":"Bevern, Kr. Holzminden","state":"Niedersachsen"},{"station_id":"02362","start_date":"1982-10-01T00:00:00+00:00","end_date":"2024-03-20T00:00:00+00:00","latitude":50.5651,"longitude":7.4843,"height":328.0,"name":"Hümmerich","state":"Rheinland-Pfalz"},{"station_id":"02385","start_date":"1974-04-01T00:00:00+00:00","end_date":"2024-03-20T00:00:00+00:00","latitude":49.6927,"longitude":7.3263,"height":376.0,"name":"Idar-Oberstein","state":"Rheinland-Pfalz"},{"station_id":"02410","start_date":"1974-01-01T00:00:00+00:00","end_date":"2024-03-20T00:00:00+00:00","latitude":48.7111,"longitude":11.5363,"height":364.0,"name":"Ingolstadt-Manching","state":"Bayern"},{"station_id":"02429","start_date":"1988-03-01T00:00:00+00:00","end_date":"2024-03-20T00:00:00+00:00","latitude":53.9897,"longitude":9.5697,"height":20.0,"name":"Itzehoe","state":"Schleswig-Holstein"},{"station_id":"02437","start_date":"1971-01-01T00:00:00+00:00","end_date":"2024-03-20T00:00:00+00:00","latitude":54.457,"longitude":9.5203,"height":21.0,"name":"Schleswig-Jagel","state":"Schleswig-Holstein"},{"station_id":"02444","start_date":"1821-01-01T00:00:00+00:00","end_date":"2024-03-20T00:00:00+00:00","latitude":50.9251,"longitude":11.583,"height":155.0,"name":"Jena (Sternwarte)","state":"Thüringen"},{"station_id":"02480","start_date":"1947-01-01T00:00:00+00:00","end_date":"2024-03-20T00:00:00+00:00","latitude":50.0643,"longitude":8.993,"height":108.0,"name":"Kahl/Main","state":"Bayern"},{"station_id":"02483","start_date":"1926-11-01T00:00:00+00:00","end_date":"2024-03-20T00:00:00+00:00","latitude":51.1803,"longitude":8.4891,"height":839.0,"name":"Kahler Asten","state":"Nordrhein-Westfalen"},{"station_id":"02485","start_date":"2011-05-01T00:00:00+00:00","end_date":"2024-03-20T00:00:00+00:00","latitude":48.917,"longitude":9.6871,"height":489.0,"name":"Kaisersbach-Cronhütte","state":"Baden-Württemberg"},{"station_id":"02486","start_date":"1901-01-01T00:00:00+00:00","end_date":"2024-03-20T00:00:00+00:00","latitude":49.4262,"longitude":7.7557,"height":271.0,"name":"Kaiserslautern","state":"Rheinland-Pfalz"},{"station_id":"02497","start_date":"1947-01-01T00:00:00+00:00","end_date":"2024-03-20T00:00:00+00:00","latitude":50.5014,"longitude":6.5264,"height":505.0,"name":"Kall-Sistig","state":"Nordrhein-Westfalen"},{"station_id":"02559","start_date":"1952-01-01T00:00:00+00:00","end_date":"2024-03-20T00:00:00+00:00","latitude":47.7233,"longitude":10.3348,"height":705.0,"name":"Kempten","state":"Bayern"},{"station_id":"02564","start_date":"1974-01-01T00:00:00+00:00","end_date":"2024-03-20T00:00:00+00:00","latitude":54.3776,"longitude":10.1424,"height":28.0,"name":"Kiel-Holtenau","state":"Schleswig-Holstein"},{"station_id":"02575","start_date":"2007-05-22T00:00:00+00:00","end_date":"2024-03-20T00:00:00+00:00","latitude":49.1804,"longitude":9.98,"height":432.0,"name":"Kirchberg/Jagst-Herboldshausen","state":"Baden-Württemberg"},{"station_id":"02578","start_date":"1865-01-01T00:00:00+00:00","end_date":"2024-03-20T00:00:00+00:00","latitude":53.9995,"longitude":11.4341,"height":14.0,"name":"Kirchdorf/Poel","state":"Mecklenburg-Vorpommern"},{"station_id":"02597","start_date":"1946-01-01T00:00:00+00:00","end_date":"2024-03-20T00:00:00+00:00","latitude":50.224,"longitude":10.0792,"height":282.0,"name":"Kissingen, Bad","state":"Bayern"},{"station_id":"02600","start_date":"1982-11-01T00:00:00+00:00","end_date":"2024-03-20T00:00:00+00:00","latitude":49.7363,"longitude":10.1781,"height":193.0,"name":"Kitzingen","state":"Bayern"},{"station_id":"02601","start_date":"1936-01-01T00:00:00+00:00","end_date":"2024-03-20T00:00:00+00:00","latitude":50.2218,"longitude":8.4469,"height":822.0,"name":"Kleiner Feldberg/Taunus","state":"Hessen"},{"station_id":"02618","start_date":"1958-01-01T00:00:00+00:00","end_date":"2024-03-20T00:00:00+00:00","latitude":50.8458,"longitude":10.4803,"height":732.0,"name":"Kleiner Inselsberg","state":"Thüringen"},{"station_id":"02627","start_date":"1996-07-01T00:00:00+00:00","end_date":"2024-03-20T00:00:00+00:00","latitude":51.5554,"longitude":13.8845,"height":128.0,"name":"Schipkau-Klettwitz","state":"Brandenburg"},{"station_id":"02629","start_date":"1904-10-01T00:00:00+00:00","end_date":"2024-03-20T00:00:00+00:00","latitude":51.7612,"longitude":6.0954,"height":46.0,"name":"Kleve","state":"Nordrhein-Westfalen"},{"station_id":"02638","start_date":"1947-01-01T00:00:00+00:00","end_date":"2024-03-20T00:00:00+00:00","latitude":48.1054,"longitude":8.7548,"height":974.0,"name":"Klippeneck","state":"Baden-Württemberg"},{"station_id":"02641","start_date":"1994-10-01T00:00:00+00:00","end_date":"2024-03-20T00:00:00+00:00","latitude":51.5185,"longitude":12.9065,"height":90.0,"name":"Klitzschen bei Torgau","state":"Sachsen"},{"station_id":"02667","start_date":"1957-07-01T00:00:00+00:00","end_date":"2024-03-20T00:00:00+00:00","latitude":50.8645,"longitude":7.1575,"height":91.0,"name":"Köln/Bonn","state":"Nordrhein-Westfalen"},{"station_id":"02680","start_date":"1951-01-01T00:00:00+00:00","end_date":"2024-03-20T00:00:00+00:00","latitude":50.284,"longitude":10.4456,"height":289.0,"name":"Königshofen, Bad","state":"Bayern"},{"station_id":"02700","start_date":"1961-01-01T00:00:00+00:00","end_date":"2024-03-20T00:00:00+00:00","latitude":48.8302,"longitude":11.4872,"height":416.0,"name":"Kösching","state":"Bayern"},{"station_id":"02704","start_date":"1955-06-01T00:00:00+00:00","end_date":"2024-03-20T00:00:00+00:00","latitude":51.7511,"longitude":12.0094,"height":76.0,"name":"Köthen (Anhalt)","state":"Sachsen-Anhalt"},{"station_id":"02708","start_date":"1991-08-01T00:00:00+00:00","end_date":"2024-03-20T00:00:00+00:00","latitude":47.6652,"longitude":11.0805,"height":742.0,"name":"Kohlgrub, Bad (Rosshof)","state":"Bayern"},{"station_id":"02712","start_date":"1959-07-01T00:00:00+00:00","end_date":"2024-03-20T00:00:00+00:00","latitude":47.6952,"longitude":9.1307,"height":428.0,"name":"Konstanz","state":"Baden-Württemberg"},{"station_id":"02750","start_date":"1949-01-01T00:00:00+00:00","end_date":"2024-03-20T00:00:00+00:00","latitude":50.2524,"longitude":11.3209,"height":310.0,"name":"Kronach","state":"Bayern"},{"station_id":"02773","start_date":"1974-01-01T00:00:00+00:00","end_date":"2024-03-20T00:00:00+00:00","latitude":49.4283,"longitude":11.9016,"height":415.0,"name":"Kümmersbruck","state":"Bayern"},{"station_id":"02794","start_date":"1945-05-01T00:00:00+00:00","end_date":"2024-03-20T00:00:00+00:00","latitude":52.9362,"longitude":12.4093,"height":40.0,"name":"Kyritz","state":"Brandenburg"},{"station_id":"02796","start_date":"2000-06-01T00:00:00+00:00","end_date":"2024-03-20T00:00:00+00:00","latitude":53.9156,"longitude":12.279,"height":41.0,"name":"Laage-Kronskamp","state":"Mecklenburg-Vorpommern"},{"station_id":"02812","start_date":"1950-01-01T00:00:00+00:00","end_date":"2024-03-20T00:00:00+00:00","latitude":48.3647,"longitude":7.828,"height":156.0,"name":"Lahr","state":"Baden-Württemberg"},{"station_id":"02814","start_date":"1949-01-01T00:00:00+00:00","end_date":"2024-03-20T00:00:00+00:00","latitude":48.5122,"longitude":9.7644,"height":687.0,"name":"Merklingen","state":"Baden-Württemberg"},{"station_id":"02856","start_date":"1993-06-01T00:00:00+00:00","end_date":"2024-03-20T00:00:00+00:00","latitude":51.9173,"longitude":13.0878,"height":91.0,"name":"Langenlipsdorf","state":"Brandenburg"},{"station_id":"02878","start_date":"1947-04-01T00:00:00+00:00","end_date":"2024-03-20T00:00:00+00:00","latitude":51.3909,"longitude":11.8786,"height":117.0,"name":"Lauchstädt, Bad","state":"Sachsen-Anhalt"},{"station_id":"02886","start_date":"1970-01-01T00:00:00+00:00","end_date":"2024-03-20T00:00:00+00:00","latitude":48.2175,"longitude":9.9097,"height":539.0,"name":"Laupheim","state":"Baden-Württemberg"},{"station_id":"02905","start_date":"1969-01-01T00:00:00+00:00","end_date":"2024-03-20T00:00:00+00:00","latitude":48.1849,"longitude":10.8507,"height":550.0,"name":"Lechfeld","state":"Bayern"},{"station_id":"02907","start_date":"1974-11-01T00:00:00+00:00","end_date":"2024-03-20T00:00:00+00:00","latitude":54.7903,"longitude":8.9514,"height":7.0,"name":"Leck","state":"Schleswig-Holstein"},{"station_id":"02925","start_date":"1957-01-01T00:00:00+00:00","end_date":"2024-03-20T00:00:00+00:00","latitude":51.3932,"longitude":10.3123,"height":356.0,"name":"Leinefelde","state":"Thüringen"},{"station_id":"02928","start_date":"1863-12-01T00:00:00+00:00","end_date":"2024-03-20T00:00:00+00:00","latitude":51.3151,"longitude":12.4462,"height":138.0,"name":"Leipzig-Holzhausen","state":"Sachsen"},{"station_id":"02932","start_date":"1934-01-01T00:00:00+00:00","end_date":"2024-03-20T00:00:00+00:00","latitude":51.4347,"longitude":12.2396,"height":131.0,"name":"Leipzig/Halle","state":"Sachsen"},{"station_id":"02947","start_date":"1962-04-01T00:00:00+00:00","end_date":"2024-03-20T00:00:00+00:00","latitude":51.1333,"longitude":8.0348,"height":286.0,"name":"Lennestadt-Theten","state":"Nordrhein-Westfalen"},{"station_id":"02951","start_date":"1994-10-01T00:00:00+00:00","end_date":"2024-03-20T00:00:00+00:00","latitude":53.1007,"longitude":11.4864,"height":20.0,"name":"Lenzen/Elbe","state":"Brandenburg"},{"station_id":"02953","start_date":"1961-01-01T00:00:00+00:00","end_date":"2024-03-20T00:00:00+00:00","latitude":47.8597,"longitude":8.2308,"height":854.0,"name":"Lenzkirch-Ruhbühl","state":"Baden-Württemberg"},{"station_id":"02961","start_date":"1998-01-01T00:00:00+00:00","end_date":"2024-03-20T00:00:00+00:00","latitude":54.4996,"longitude":10.2737,"height":0.0,"name":"Leuchtturm Kiel","state":"Schleswig-Holstein"},{"station_id":"02968","start_date":"1945-01-01T00:00:00+00:00","end_date":"2024-03-20T00:00:00+00:00","latitude":50.9894,"longitude":6.9777,"height":43.0,"name":"Köln-Stammheim","state":"Nordrhein-Westfalen"},{"station_id":"02985","start_date":"1991-01-01T00:00:00+00:00","end_date":"2024-03-20T00:00:00+00:00","latitude":50.9383,"longitude":14.2094,"height":321.0,"name":"Lichtenhain-Mittelndorf","state":"Sachsen"},{"station_id":"03015","start_date":"1906-04-01T00:00:00+00:00","end_date":"2024-03-20T00:00:00+00:00","latitude":52.2085,"longitude":14.118,"height":98.0,"name":"Lindenberg","state":"Brandenburg"},{"station_id":"03028","start_date":"1951-01-01T00:00:00+00:00","end_date":"2024-03-20T00:00:00+00:00","latitude":51.7854,"longitude":8.8388,"height":157.0,"name":"Lippspringe, Bad","state":"Nordrhein-Westfalen"},{"station_id":"03031","start_date":"1980-12-01T00:00:00+00:00","end_date":"2024-03-20T00:00:00+00:00","latitude":51.6336,"longitude":8.3945,"height":92.0,"name":"Lippstadt-Bökenförde","state":"Nordrhein-Westfalen"},{"station_id":"03032","start_date":"1937-01-01T00:00:00+00:00","end_date":"2024-03-20T00:00:00+00:00","latitude":55.011,"longitude":8.4125,"height":25.0,"name":"List auf Sylt","state":"Schleswig-Holstein"},{"station_id":"03034","start_date":"1952-03-01T00:00:00+00:00","end_date":"2024-03-20T00:00:00+00:00","latitude":50.4505,"longitude":11.635,"height":496.0,"name":"Lobenstein, Bad","state":"Thüringen"},{"station_id":"03042","start_date":"1993-07-01T00:00:00+00:00","end_date":"2024-03-20T00:00:00+00:00","latitude":50.5617,"longitude":8.2386,"height":230.0,"name":"Löhnberg-Obershausen","state":"Hessen"},{"station_id":"03083","start_date":"1991-10-01T00:00:00+00:00","end_date":"2024-03-20T00:00:00+00:00","latitude":51.9267,"longitude":13.8797,"height":57.0,"name":"Lübben-Blumenfelde","state":"Brandenburg"},{"station_id":"03086","start_date":"1985-03-01T00:00:00+00:00","end_date":"2024-03-20T00:00:00+00:00","latitude":53.8025,"longitude":10.6989,"height":15.0,"name":"Lübeck-Blankensee","state":"Schleswig-Holstein"},{"station_id":"03093","start_date":"1954-12-01T00:00:00+00:00","end_date":"2024-03-20T00:00:00+00:00","latitude":52.9724,"longitude":11.1374,"height":16.0,"name":"Lüchow","state":"Niedersachsen"},{"station_id":"03098","start_date":"1994-01-01T00:00:00+00:00","end_date":"2024-03-20T00:00:00+00:00","latitude":51.2452,"longitude":7.6425,"height":387.0,"name":"Lüdenscheid","state":"Nordrhein-Westfalen"},{"station_id":"03126","start_date":"1881-01-01T00:00:00+00:00","end_date":"2024-03-20T00:00:00+00:00","latitude":52.1029,"longitude":11.5827,"height":79.0,"name":"Magdeburg","state":"Sachsen-Anhalt"},{"station_id":"03137","start_date":"1948-01-01T00:00:00+00:00","end_date":"2023-08-01T00:00:00+00:00","latitude":49.9656,"longitude":8.2139,"height":195.0,"name":"Mainz-Lerchenberg (ZDF)","state":"Rheinland-Pfalz"},{"station_id":"03147","start_date":"1953-01-01T00:00:00+00:00","end_date":"2024-03-20T00:00:00+00:00","latitude":48.7548,"longitude":12.2118,"height":390.0,"name":"Mallersdorf-Pfaffenberg-Oberlindhart","state":"Bayern"},{"station_id":"03155","start_date":"1961-11-01T00:00:00+00:00","end_date":"2024-03-20T00:00:00+00:00","latitude":50.1015,"longitude":6.8009,"height":413.0,"name":"Manderscheid-Sonnenhof","state":"Rheinland-Pfalz"},{"station_id":"03158","start_date":"1985-01-01T00:00:00+00:00","end_date":"2024-03-20T00:00:00+00:00","latitude":52.5468,"longitude":14.5453,"height":12.0,"name":"Manschnow","state":"Brandenburg"},{"station_id":"03164","start_date":"1946-01-01T00:00:00+00:00","end_date":"2024-03-20T00:00:00+00:00","latitude":50.8492,"longitude":8.7745,"height":187.0,"name":"Cölbe, Kr. Marburg-Biedenkopf","state":"Hessen"},{"station_id":"03166","start_date":"1955-08-01T00:00:00+00:00","end_date":"2024-03-20T00:00:00+00:00","latitude":50.6511,"longitude":13.1469,"height":639.0,"name":"Marienberg","state":"Sachsen"},{"station_id":"03167","start_date":"1962-12-01T00:00:00+00:00","end_date":"2024-03-20T00:00:00+00:00","latitude":50.6621,"longitude":7.9603,"height":547.0,"name":"Marienberg, Bad","state":"Rheinland-Pfalz"},{"station_id":"03181","start_date":"2021-08-01T00:00:00+00:00","end_date":"2024-03-20T00:00:00+00:00","latitude":49.4875,"longitude":10.6277,"height":360.0,"name":"Markt Erlbach-Hagenhofen","state":"Bayern"},{"station_id":"03196","start_date":"1902-01-01T00:00:00+00:00","end_date":"2024-03-20T00:00:00+00:00","latitude":53.3222,"longitude":11.9321,"height":81.0,"name":"Marnitz","state":"Mecklenburg-Vorpommern"},{"station_id":"03204","start_date":"1983-11-01T00:00:00+00:00","end_date":"2024-03-20T00:00:00+00:00","latitude":50.7335,"longitude":10.8815,"height":429.0,"name":"Martinroda","state":"Thüringen"},{"station_id":"03226","start_date":"2006-08-01T00:00:00+00:00","end_date":"2024-03-20T00:00:00+00:00","latitude":51.7259,"longitude":11.5109,"height":107.0,"name":"Aschersleben-Mehringen","state":"Sachsen-Anhalt"},{"station_id":"03231","start_date":"1979-01-01T00:00:00+00:00","end_date":"2024-03-20T00:00:00+00:00","latitude":50.5611,"longitude":10.3771,"height":450.0,"name":"Meiningen","state":"Thüringen"},{"station_id":"03234","start_date":"1956-06-01T00:00:00+00:00","end_date":"2024-03-20T00:00:00+00:00","latitude":51.1294,"longitude":13.4328,"height":158.0,"name":"Klipphausen-Garsebach","state":"Sachsen"},{"station_id":"03244","start_date":"1961-01-01T00:00:00+00:00","end_date":"2024-03-20T00:00:00+00:00","latitude":47.9821,"longitude":10.1384,"height":614.0,"name":"Memmingen","state":"Bayern"},{"station_id":"03254","start_date":"1973-01-01T00:00:00+00:00","end_date":"2024-03-20T00:00:00+00:00","latitude":52.7155,"longitude":7.3176,"height":19.0,"name":"Meppen","state":"Niedersachsen"},{"station_id":"03257","start_date":"1947-01-01T00:00:00+00:00","end_date":"2022-09-30T00:00:00+00:00","latitude":49.4797,"longitude":9.7832,"height":278.0,"name":"Mergentheim, Bad","state":"Baden-Württemberg"},{"station_id":"03268","start_date":"2000-06-01T00:00:00+00:00","end_date":"2024-03-20T00:00:00+00:00","latitude":48.1694,"longitude":8.9433,"height":900.0,"name":"Meßstetten-Appental","state":"Baden-Württemberg"},{"station_id":"03271","start_date":"1941-01-01T00:00:00+00:00","end_date":"2024-03-20T00:00:00+00:00","latitude":48.8548,"longitude":12.9189,"height":314.0,"name":"Metten","state":"Bayern"},{"station_id":"03278","start_date":"2003-01-01T00:00:00+00:00","end_date":"2024-03-20T00:00:00+00:00","latitude":48.5377,"longitude":9.2734,"height":354.0,"name":"Metzingen","state":"Baden-Württemberg"},{"station_id":"03284","start_date":"1987-01-01T00:00:00+00:00","end_date":"2024-03-20T00:00:00+00:00","latitude":49.6692,"longitude":9.0085,"height":240.0,"name":"Michelstadt","state":"Hessen"},{"station_id":"03287","start_date":"1987-10-01T00:00:00+00:00","end_date":"2024-03-20T00:00:00+00:00","latitude":49.7177,"longitude":9.0997,"height":453.0,"name":"Michelstadt-Vielbrunn","state":"Hessen"},{"station_id":"03289","start_date":"1972-10-01T00:00:00+00:00","end_date":"2024-03-20T00:00:00+00:00","latitude":50.7281,"longitude":11.7838,"height":356.0,"name":"Schmieritz-Weltwitz","state":"Thüringen"},{"station_id":"03307","start_date":"1937-01-01T00:00:00+00:00","end_date":"2022-12-31T00:00:00+00:00","latitude":47.4779,"longitude":11.2653,"height":984.0,"name":"Mittenwald-Buckelwiesen","state":"Bayern"},{"station_id":"03319","start_date":"2006-09-01T00:00:00+00:00","end_date":"2024-03-20T00:00:00+00:00","latitude":49.7644,"longitude":9.253,"height":239.0,"name":"Röllbach","state":"Bayern"},{"station_id":"03321","start_date":"2008-04-25T00:00:00+00:00","end_date":"2024-03-20T00:00:00+00:00","latitude":51.1313,"longitude":6.3608,"height":76.0,"name":"Mönchengladbach-Hilderath","state":"Nordrhein-Westfalen"},{"station_id":"03348","start_date":"1990-07-01T00:00:00+00:00","end_date":"2024-03-20T00:00:00+00:00","latitude":51.7209,"longitude":9.8351,"height":241.0,"name":"Moringen-Lutterbeck","state":"Niedersachsen"},{"station_id":"03362","start_date":"1998-01-01T00:00:00+00:00","end_date":"2024-03-20T00:00:00+00:00","latitude":48.9721,"longitude":8.8735,"height":243.0,"name":"Mühlacker","state":"Baden-Württemberg"},{"station_id":"03366","start_date":"1953-01-01T00:00:00+00:00","end_date":"2024-03-20T00:00:00+00:00","latitude":48.279,"longitude":12.5024,"height":406.0,"name":"Mühldorf","state":"Bayern"},{"station_id":"03376","start_date":"1937-01-01T00:00:00+00:00","end_date":"2024-03-20T00:00:00+00:00","latitude":52.5176,"longitude":14.1232,"height":63.0,"name":"Müncheberg","state":"Brandenburg"},{"station_id":"03379","start_date":"1954-06-01T00:00:00+00:00","end_date":"2024-03-20T00:00:00+00:00","latitude":48.1632,"longitude":11.5429,"height":515.0,"name":"München-Stadt","state":"Bayern"},{"station_id":"03402","start_date":"1946-01-01T00:00:00+00:00","end_date":"2024-03-20T00:00:00+00:00","latitude":48.3851,"longitude":9.4837,"height":755.0,"name":"Münsingen-Apfelstetten","state":"Baden-Württemberg"},{"station_id":"03426","start_date":"1936-05-18T00:00:00+00:00","end_date":"2024-03-20T00:00:00+00:00","latitude":51.566,"longitude":14.7008,"height":127.0,"name":"Muskau, Bad","state":"Sachsen"},{"station_id":"03442","start_date":"1947-01-01T00:00:00+00:00","end_date":"2024-03-20T00:00:00+00:00","latitude":50.3574,"longitude":8.7506,"height":149.0,"name":"Nauheim, Bad","state":"Hessen"},{"station_id":"03484","start_date":"1973-01-01T00:00:00+00:00","end_date":"2024-03-20T00:00:00+00:00","latitude":48.7085,"longitude":11.2147,"height":380.0,"name":"Neuburg an der Donau","state":"Bayern"},{"station_id":"03485","start_date":"1991-06-01T00:00:00+00:00","end_date":"2024-03-20T00:00:00+00:00","latitude":48.3115,"longitude":10.3773,"height":486.0,"name":"Neuburg/Kammel-Langenhaslach","state":"Bayern"},{"station_id":"03490","start_date":"1948-01-01T00:00:00+00:00","end_date":"2024-03-20T00:00:00+00:00","latitude":50.5346,"longitude":7.0853,"height":111.0,"name":"Neuenahr, Bad-Ahrweiler","state":"Rheinland-Pfalz"},{"station_id":"03509","start_date":"2004-10-01T00:00:00+00:00","end_date":"2024-03-20T00:00:00+00:00","latitude":53.102,"longitude":13.0421,"height":78.0,"name":"Stechlin-Menz","state":"Brandenburg"},{"station_id":"03513","start_date":"1953-07-01T00:00:00+00:00","end_date":"2024-03-20T00:00:00+00:00","latitude":50.5003,"longitude":11.1345,"height":845.0,"name":"Neuhaus am Rennweg","state":"Thüringen"},{"station_id":"03527","start_date":"1947-01-01T00:00:00+00:00","end_date":"2024-03-20T00:00:00+00:00","latitude":50.8923,"longitude":9.405,"height":500.0,"name":"Neukirchen-Hauptschwenda","state":"Hessen"},{"station_id":"03540","start_date":"1992-09-01T00:00:00+00:00","end_date":"2024-03-20T00:00:00+00:00","latitude":50.8446,"longitude":7.372,"height":195.0,"name":"Neunkirchen-Seelscheid-Krawinkel","state":"Nordrhein-Westfalen"},{"station_id":"03545","start_date":"1970-01-01T00:00:00+00:00","end_date":"2024-03-20T00:00:00+00:00","latitude":49.344,"longitude":7.2297,"height":236.0,"name":"Neunkirchen-Wellesweiler","state":"Saarland"},{"station_id":"03571","start_date":"2008-03-01T00:00:00+00:00","end_date":"2024-03-20T00:00:00+00:00","latitude":49.8174,"longitude":11.8638,"height":452.0,"name":"Neustadt am Kulm-Filchendorf","state":"Bayern"},{"station_id":"03591","start_date":"1994-01-01T00:00:00+00:00","end_date":"2024-03-20T00:00:00+00:00","latitude":50.6743,"longitude":6.424,"height":350.0,"name":"Nideggen-Schmidt","state":"Nordrhein-Westfalen"},{"station_id":"03603","start_date":"2000-07-01T00:00:00+00:00","end_date":"2024-03-20T00:00:00+00:00","latitude":49.3895,"longitude":9.9666,"height":459.0,"name":"Niederstetten","state":"Baden-Württemberg"},{"station_id":"03612","start_date":"1947-01-01T00:00:00+00:00","end_date":"2024-03-20T00:00:00+00:00","latitude":52.6711,"longitude":9.2229,"height":25.0,"name":"Nienburg","state":"Niedersachsen"},{"station_id":"03621","start_date":"1947-01-01T00:00:00+00:00","end_date":"2024-03-20T00:00:00+00:00","latitude":48.8253,"longitude":10.5067,"height":435.0,"name":"Reimlingen","state":"Bayern"},{"station_id":"03623","start_date":"1969-01-01T00:00:00+00:00","end_date":"2024-03-20T00:00:00+00:00","latitude":50.8294,"longitude":6.6601,"height":110.0,"name":"Nörvenich-Niederbolheim","state":"Nordrhein-Westfalen"},{"station_id":"03631","start_date":"1858-03-01T00:00:00+00:00","end_date":"2024-03-20T00:00:00+00:00","latitude":53.7123,"longitude":7.1519,"height":12.0,"name":"Norderney","state":"Niedersachsen"},{"station_id":"03639","start_date":"1974-01-01T00:00:00+00:00","end_date":"2024-03-20T00:00:00+00:00","latitude":53.7647,"longitude":8.6584,"height":26.0,"name":"Nordholz-Wanhöden","state":"Niedersachsen"},{"station_id":"03660","start_date":"1995-03-01T00:00:00+00:00","end_date":"2024-03-20T00:00:00+00:00","latitude":50.3602,"longitude":6.8697,"height":485.0,"name":"Nürburg-Barweiler","state":"Rheinland-Pfalz"},{"station_id":"03667","start_date":"1975-01-01T00:00:00+00:00","end_date":"2024-03-20T00:00:00+00:00","latitude":49.4258,"longitude":11.2539,"height":369.0,"name":"Nürnberg-Netzstall","state":"Bayern"},{"station_id":"03668","start_date":"1879-01-01T00:00:00+00:00","end_date":"2024-03-20T00:00:00+00:00","latitude":49.503,"longitude":11.0549,"height":314.0,"name":"Nürnberg","state":"Bayern"},{"station_id":"03679","start_date":"1947-01-01T00:00:00+00:00","end_date":"2024-03-20T00:00:00+00:00","latitude":47.6187,"longitude":12.1665,"height":518.0,"name":"Kiefersfelden-Gach","state":"Bayern"},{"station_id":"03730","start_date":"1910-01-01T00:00:00+00:00","end_date":"2024-03-20T00:00:00+00:00","latitude":47.3984,"longitude":10.2759,"height":806.0,"name":"Oberstdorf","state":"Bayern"},{"station_id":"03734","start_date":"2004-07-01T00:00:00+00:00","end_date":"2024-03-20T00:00:00+00:00","latitude":49.128,"longitude":9.3525,"height":232.0,"name":"Obersulm-Willsbach","state":"Baden-Württemberg"},{"station_id":"03739","start_date":"1948-10-01T00:00:00+00:00","end_date":"2024-03-20T00:00:00+00:00","latitude":49.4521,"longitude":12.4365,"height":596.0,"name":"Oberviechtach","state":"Bayern"},{"station_id":"03761","start_date":"1947-01-01T00:00:00+00:00","end_date":"2024-03-20T00:00:00+00:00","latitude":49.207,"longitude":9.5176,"height":276.0,"name":"Öhringen","state":"Baden-Württemberg"},{"station_id":"03811","start_date":"1941-10-01T00:00:00+00:00","end_date":"2024-03-20T00:00:00+00:00","latitude":51.296,"longitude":13.0928,"height":150.0,"name":"Oschatz","state":"Sachsen"},{"station_id":"03821","start_date":"1984-08-01T00:00:00+00:00","end_date":"2024-03-20T00:00:00+00:00","latitude":51.0872,"longitude":11.9293,"height":244.0,"name":"Osterfeld","state":"Sachsen-Anhalt"},{"station_id":"03836","start_date":"1972-05-01T00:00:00+00:00","end_date":"2024-03-20T00:00:00+00:00","latitude":50.4538,"longitude":10.2211,"height":314.0,"name":"Ostheim v.d. Rhön","state":"Bayern"},{"station_id":"03857","start_date":"1993-10-01T00:00:00+00:00","end_date":"2024-03-20T00:00:00+00:00","latitude":47.6362,"longitude":10.3892,"height":886.0,"name":"Oy-Mittelberg-Petersthal","state":"Bayern"},{"station_id":"03875","start_date":"1950-01-01T00:00:00+00:00","end_date":"2024-03-20T00:00:00+00:00","latitude":49.151,"longitude":11.6896,"height":549.0,"name":"Parsberg/Oberpfalz-Eglwang","state":"Bayern"},{"station_id":"03897","start_date":"1998-01-01T00:00:00+00:00","end_date":"2024-03-20T00:00:00+00:00","latitude":54.0893,"longitude":10.8773,"height":2.0,"name":"Pelzerhaken","state":"Schleswig-Holstein"},{"station_id":"03904","start_date":"1965-01-01T00:00:00+00:00","end_date":"2024-03-20T00:00:00+00:00","latitude":49.5354,"longitude":6.3789,"height":152.0,"name":"Perl-Nennig","state":"Saarland"},{"station_id":"03925","start_date":"1989-04-06T00:00:00+00:00","end_date":"2024-03-20T00:00:00+00:00","latitude":48.9329,"longitude":8.6973,"height":332.0,"name":"Pforzheim-Ispringen","state":"Baden-Württemberg"},{"station_id":"03927","start_date":"1958-01-01T00:00:00+00:00","end_date":"2024-03-20T00:00:00+00:00","latitude":47.9345,"longitude":9.2869,"height":630.0,"name":"Pfullendorf","state":"Baden-Württemberg"},{"station_id":"03939","start_date":"1950-01-01T00:00:00+00:00","end_date":"2024-03-20T00:00:00+00:00","latitude":49.1912,"longitude":7.5879,"height":385.0,"name":"Pirmasens","state":"Rheinland-Pfalz"},{"station_id":"03946","start_date":"1882-01-01T00:00:00+00:00","end_date":"2024-03-20T00:00:00+00:00","latitude":50.4818,"longitude":12.13,"height":387.0,"name":"Plauen","state":"Sachsen"},{"station_id":"03975","start_date":"1993-09-01T00:00:00+00:00","end_date":"2024-03-20T00:00:00+00:00","latitude":49.4777,"longitude":11.5357,"height":522.0,"name":"Pommelsbrunn-Mittelburg","state":"Bayern"},{"station_id":"03987","start_date":"1893-01-01T00:00:00+00:00","end_date":"2024-03-20T00:00:00+00:00","latitude":52.3812,"longitude":13.0622,"height":81.0,"name":"Potsdam","state":"Brandenburg"},{"station_id":"04024","start_date":"1853-07-01T00:00:00+00:00","end_date":"2024-03-20T00:00:00+00:00","latitude":54.3643,"longitude":13.4771,"height":40.0,"name":"Putbus","state":"Mecklenburg-Vorpommern"},{"station_id":"04032","start_date":"1945-01-01T00:00:00+00:00","end_date":"2024-03-20T00:00:00+00:00","latitude":51.7953,"longitude":11.132,"height":142.0,"name":"Quedlinburg","state":"Sachsen-Anhalt"},{"station_id":"04036","start_date":"1953-06-01T00:00:00+00:00","end_date":"2024-03-20T00:00:00+00:00","latitude":51.3895,"longitude":11.5412,"height":204.0,"name":"Querfurt-Mühle Lodersleben","state":"Sachsen-Anhalt"},{"station_id":"04039","start_date":"1974-12-01T00:00:00+00:00","end_date":"2024-03-20T00:00:00+00:00","latitude":53.7331,"longitude":9.8776,"height":11.0,"name":"Quickborn","state":"Schleswig-Holstein"},{"station_id":"04063","start_date":"1951-01-01T00:00:00+00:00","end_date":"2024-03-20T00:00:00+00:00","latitude":52.4461,"longitude":8.5906,"height":41.0,"name":"Rahden-Kleinendorf","state":"Nordrhein-Westfalen"},{"station_id":"04094","start_date":"1946-01-01T00:00:00+00:00","end_date":"2024-03-20T00:00:00+00:00","latitude":47.8062,"longitude":9.6206,"height":441.0,"name":"Weingarten, Kr. Ravensburg","state":"Baden-Württemberg"},{"station_id":"04104","start_date":"1879-01-01T00:00:00+00:00","end_date":"2024-03-20T00:00:00+00:00","latitude":49.0425,"longitude":12.1019,"height":365.0,"name":"Regensburg","state":"Bayern"},{"station_id":"04127","start_date":"1991-10-01T00:00:00+00:00","end_date":"2024-03-20T00:00:00+00:00","latitude":50.9906,"longitude":7.6958,"height":347.0,"name":"Reichshof-Eckenhagen","state":"Nordrhein-Westfalen"},{"station_id":"04160","start_date":"1970-12-22T00:00:00+00:00","end_date":"2024-03-20T00:00:00+00:00","latitude":48.7425,"longitude":8.924,"height":478.0,"name":"Renningen-Ihinger Hof","state":"Baden-Württemberg"},{"station_id":"04169","start_date":"1958-01-01T00:00:00+00:00","end_date":"2024-03-20T00:00:00+00:00","latitude":48.6703,"longitude":7.9939,"height":131.0,"name":"Rheinau-Memprechtshofen","state":"Baden-Württemberg"},{"station_id":"04175","start_date":"1953-09-01T00:00:00+00:00","end_date":"2024-03-20T00:00:00+00:00","latitude":47.559,"longitude":7.7721,"height":283.0,"name":"Rheinfelden","state":"Baden-Württemberg"},{"station_id":"04177","start_date":"1948-01-01T00:00:00+00:00","end_date":"2024-03-20T00:00:00+00:00","latitude":48.9726,"longitude":8.3301,"height":116.0,"name":"Rheinstetten","state":"Baden-Württemberg"},{"station_id":"04189","start_date":"2004-08-01T00:00:00+00:00","end_date":"2024-03-20T00:00:00+00:00","latitude":48.1479,"longitude":9.4596,"height":534.0,"name":"Altheim, Kreis Biberach","state":"Baden-Württemberg"},{"station_id":"04261","start_date":"1950-01-01T00:00:00+00:00","end_date":"2024-03-20T00:00:00+00:00","latitude":47.8753,"longitude":12.128,"height":442.0,"name":"Rosenheim","state":"Bayern"},{"station_id":"04271","start_date":"1947-01-01T00:00:00+00:00","end_date":"2024-03-20T00:00:00+00:00","latitude":54.1803,"longitude":12.0808,"height":5.0,"name":"Rostock-Warnemünde","state":"Mecklenburg-Vorpommern"},{"station_id":"04275","start_date":"1946-01-01T00:00:00+00:00","end_date":"2024-03-20T00:00:00+00:00","latitude":53.1289,"longitude":9.3398,"height":32.0,"name":"Rotenburg (Wümme)","state":"Niedersachsen"},{"station_id":"04280","start_date":"1971-01-01T00:00:00+00:00","end_date":"2024-03-20T00:00:00+00:00","latitude":49.2162,"longitude":11.1035,"height":386.0,"name":"Roth","state":"Bayern"},{"station_id":"04287","start_date":"1947-06-01T00:00:00+00:00","end_date":"2024-03-20T00:00:00+00:00","latitude":49.3849,"longitude":10.1732,"height":415.0,"name":"Rothenburg ob der Tauber","state":"Bayern"},{"station_id":"04300","start_date":"1957-02-01T00:00:00+00:00","end_date":"2024-03-20T00:00:00+00:00","latitude":48.1815,"longitude":8.6356,"height":589.0,"name":"Rottweil","state":"Baden-Württemberg"},{"station_id":"04301","start_date":"1947-01-01T00:00:00+00:00","end_date":"2024-03-20T00:00:00+00:00","latitude":49.8502,"longitude":7.871,"height":102.0,"name":"Kreuznach, Bad","state":"Rheinland-Pfalz"},{"station_id":"04323","start_date":"1969-01-01T00:00:00+00:00","end_date":"2024-03-20T00:00:00+00:00","latitude":49.6468,"longitude":7.8837,"height":461.0,"name":"Ruppertsecken","state":"Rheinland-Pfalz"},{"station_id":"04336","start_date":"1951-01-01T00:00:00+00:00","end_date":"2024-03-20T00:00:00+00:00","latitude":49.2128,"longitude":7.1077,"height":319.0,"name":"Saarbrücken-Ensheim","state":"Saarland"},{"station_id":"04349","start_date":"1987-11-01T00:00:00+00:00","end_date":"2024-03-20T00:00:00+00:00","latitude":48.9569,"longitude":9.0711,"height":251.0,"name":"Sachsenheim","state":"Baden-Württemberg"},{"station_id":"04354","start_date":"1985-09-01T00:00:00+00:00","end_date":"2024-03-20T00:00:00+00:00","latitude":48.7832,"longitude":13.3146,"height":457.0,"name":"Saldenburg-Entschenreuth","state":"Bayern"},{"station_id":"04371","start_date":"1935-01-01T00:00:00+00:00","end_date":"2024-03-20T00:00:00+00:00","latitude":52.1042,"longitude":8.7521,"height":135.0,"name":"Salzuflen, Bad","state":"Nordrhein-Westfalen"},{"station_id":"04377","start_date":"1965-01-01T00:00:00+00:00","end_date":"2024-03-20T00:00:00+00:00","latitude":50.3518,"longitude":10.0034,"height":518.0,"name":"Sandberg","state":"Bayern"},{"station_id":"04393","start_date":"1951-01-01T00:00:00+00:00","end_date":"2024-03-20T00:00:00+00:00","latitude":54.3279,"longitude":8.6031,"height":5.0,"name":"Sankt Peter-Ording","state":"Schleswig-Holstein"},{"station_id":"04411","start_date":"1979-12-01T00:00:00+00:00","end_date":"2024-03-20T00:00:00+00:00","latitude":49.9195,"longitude":8.9672,"height":155.0,"name":"Schaafheim-Schlierbach","state":"Hessen"},{"station_id":"04445","start_date":"1902-12-01T00:00:00+00:00","end_date":"2024-03-20T00:00:00+00:00","latitude":51.7658,"longitude":10.6533,"height":609.0,"name":"Wernigerode-Schierke","state":"Sachsen-Anhalt"},{"station_id":"04464","start_date":"1951-04-01T00:00:00+00:00","end_date":"2024-03-20T00:00:00+00:00","latitude":50.5679,"longitude":11.8041,"height":501.0,"name":"Schleiz","state":"Thüringen"},{"station_id":"04466","start_date":"1947-01-01T00:00:00+00:00","end_date":"2024-03-20T00:00:00+00:00","latitude":54.5275,"longitude":9.5487,"height":43.0,"name":"Schleswig","state":"Schleswig-Holstein"},{"station_id":"04480","start_date":"1985-10-01T00:00:00+00:00","end_date":"2024-03-20T00:00:00+00:00","latitude":50.3447,"longitude":9.5533,"height":230.0,"name":"Schlüchtern-Herolz","state":"Hessen"},{"station_id":"04501","start_date":"1936-01-01T00:00:00+00:00","end_date":"2024-03-20T00:00:00+00:00","latitude":50.6545,"longitude":10.7696,"height":938.0,"name":"Schmücke","state":"Thüringen"},{"station_id":"04508","start_date":"1953-01-01T00:00:00+00:00","end_date":"2024-03-20T00:00:00+00:00","latitude":50.2968,"longitude":6.4194,"height":649.0,"name":"Schneifelforsthaus","state":"Rheinland-Pfalz"},{"station_id":"04548","start_date":"2007-07-01T00:00:00+00:00","end_date":"2024-03-20T00:00:00+00:00","latitude":50.1847,"longitude":12.0791,"height":608.0,"name":"Schönwald/Ofr.-Brunn","state":"Bayern"},{"station_id":"04559","start_date":"1996-05-01T00:00:00+00:00","end_date":"2024-03-20T00:00:00+00:00","latitude":49.1644,"longitude":12.6175,"height":398.0,"name":"Schorndorf-Knöbling","state":"Bayern"},{"station_id":"04560","start_date":"1949-01-01T00:00:00+00:00","end_date":"2022-01-02T00:00:00+00:00","latitude":50.4925,"longitude":9.1226,"height":265.0,"name":"Schotten","state":"Hessen"},{"station_id":"04592","start_date":"1955-10-21T00:00:00+00:00","end_date":"2024-03-20T00:00:00+00:00","latitude":49.3278,"longitude":12.0871,"height":356.0,"name":"Schwandorf","state":"Bayern"},{"station_id":"04605","start_date":"1949-07-05T00:00:00+00:00","end_date":"2024-03-20T00:00:00+00:00","latitude":50.6441,"longitude":11.1936,"height":277.0,"name":"Schwarzburg","state":"Thüringen"},{"station_id":"04625","start_date":"1890-01-01T00:00:00+00:00","end_date":"2024-03-20T00:00:00+00:00","latitude":53.6424,"longitude":11.3871,"height":59.0,"name":"Schwerin","state":"Mecklenburg-Vorpommern"},{"station_id":"04642","start_date":"1976-10-01T00:00:00+00:00","end_date":"2024-03-20T00:00:00+00:00","latitude":52.8911,"longitude":11.7297,"height":21.0,"name":"Seehausen","state":"Sachsen-Anhalt"},{"station_id":"04651","start_date":"1937-01-01T00:00:00+00:00","end_date":"2024-03-20T00:00:00+00:00","latitude":51.904,"longitude":10.1885,"height":189.0,"name":"Seesen","state":"Niedersachsen"},{"station_id":"04703","start_date":"1951-01-01T00:00:00+00:00","end_date":"2024-03-20T00:00:00+00:00","latitude":48.0719,"longitude":9.1943,"height":581.0,"name":"Sigmaringen-Laiz","state":"Baden-Württemberg"},{"station_id":"04704","start_date":"1988-05-01T00:00:00+00:00","end_date":"2024-03-20T00:00:00+00:00","latitude":47.5776,"longitude":9.7404,"height":508.0,"name":"Sigmarszell-Zeisertsweiler","state":"Bayern"},{"station_id":"04706","start_date":"1981-01-01T00:00:00+00:00","end_date":"2024-03-20T00:00:00+00:00","latitude":48.2718,"longitude":13.0273,"height":358.0,"name":"Simbach/Inn","state":"Bayern"},{"station_id":"04709","start_date":"1979-04-01T00:00:00+00:00","end_date":"2024-03-20T00:00:00+00:00","latitude":49.9996,"longitude":7.5981,"height":445.0,"name":"Simmern-Wahlbach","state":"Rheinland-Pfalz"},{"station_id":"04745","start_date":"1935-01-01T00:00:00+00:00","end_date":"2024-03-20T00:00:00+00:00","latitude":52.9604,"longitude":9.793,"height":75.0,"name":"Soltau","state":"Niedersachsen"},{"station_id":"04748","start_date":"1861-01-01T00:00:00+00:00","end_date":"2024-03-20T00:00:00+00:00","latitude":51.3691,"longitude":10.88,"height":185.0,"name":"Sondershausen","state":"Thüringen"},{"station_id":"04763","start_date":"1961-01-01T00:00:00+00:00","end_date":"2024-03-20T00:00:00+00:00","latitude":51.0607,"longitude":9.9266,"height":265.0,"name":"Sontra","state":"Hessen"},{"station_id":"04813","start_date":"2020-08-01T00:00:00+00:00","end_date":"2024-03-20T00:00:00+00:00","latitude":50.0806,"longitude":11.0467,"height":318.0,"name":"Staffelstein, Bad-Stublang","state":"Bayern"},{"station_id":"04841","start_date":"1998-10-01T00:00:00+00:00","end_date":"2024-03-20T00:00:00+00:00","latitude":53.6946,"longitude":8.8735,"height":-0.0,"name":"Steinau, Kr. Cuxhaven","state":"Niedersachsen"},{"station_id":"04857","start_date":"1990-11-01T00:00:00+00:00","end_date":"2024-03-20T00:00:00+00:00","latitude":53.5534,"longitude":9.6097,"height":2.0,"name":"Mittelnkirchen-Hohenfelde","state":"Niedersachsen"},{"station_id":"04878","start_date":"1930-01-01T00:00:00+00:00","end_date":"2024-03-20T00:00:00+00:00","latitude":51.6646,"longitude":10.8811,"height":504.0,"name":"Oberharz am Brocken-Stiege","state":"Sachsen-Anhalt"},{"station_id":"04887","start_date":"1947-01-01T00:00:00+00:00","end_date":"2024-03-20T00:00:00+00:00","latitude":48.6656,"longitude":9.8648,"height":734.0,"name":"Stötten","state":"Baden-Württemberg"},{"station_id":"04896","start_date":"1974-12-01T00:00:00+00:00","end_date":"2022-11-30T00:00:00+00:00","latitude":54.6654,"longitude":9.805,"height":40.0,"name":"Wagersrott","state":"Schleswig-Holstein"},{"station_id":"04911","start_date":"1949-05-01T00:00:00+00:00","end_date":"2024-03-20T00:00:00+00:00","latitude":48.8275,"longitude":12.5597,"height":351.0,"name":"Straubing","state":"Bayern"},{"station_id":"04928","start_date":"1958-01-01T00:00:00+00:00","end_date":"2024-03-20T00:00:00+00:00","latitude":48.8281,"longitude":9.2,"height":314.0,"name":"Stuttgart (Schnarrenberg)","state":"Baden-Württemberg"},{"station_id":"04931","start_date":"1953-01-01T00:00:00+00:00","end_date":"2024-03-20T00:00:00+00:00","latitude":48.6883,"longitude":9.2235,"height":371.0,"name":"Stuttgart-Echterdingen","state":"Baden-Württemberg"},{"station_id":"04978","start_date":"1986-01-01T00:00:00+00:00","end_date":"2024-03-20T00:00:00+00:00","latitude":50.639,"longitude":10.0228,"height":395.0,"name":"Tann/Rhön","state":"Hessen"},{"station_id":"04997","start_date":"1994-10-01T00:00:00+00:00","end_date":"2024-03-20T00:00:00+00:00","latitude":50.9771,"longitude":12.3419,"height":196.0,"name":"Starkenberg-Tegkwitz","state":"Thüringen"},{"station_id":"05009","start_date":"1947-01-01T00:00:00+00:00","end_date":"2024-03-20T00:00:00+00:00","latitude":53.761,"longitude":12.5574,"height":33.0,"name":"Teterow","state":"Mecklenburg-Vorpommern"},{"station_id":"05014","start_date":"1952-01-01T00:00:00+00:00","end_date":"2024-03-20T00:00:00+00:00","latitude":53.2758,"longitude":8.9857,"height":7.0,"name":"Worpswede-Hüttenbusch","state":"Niedersachsen"},{"station_id":"05017","start_date":"1948-01-01T00:00:00+00:00","end_date":"2024-03-20T00:00:00+00:00","latitude":50.4002,"longitude":11.3888,"height":633.0,"name":"Teuschnitz","state":"Bayern"},{"station_id":"05029","start_date":"1975-06-01T00:00:00+00:00","end_date":"2024-03-20T00:00:00+00:00","latitude":49.4737,"longitude":7.0385,"height":387.0,"name":"Tholey","state":"Saarland"},{"station_id":"05046","start_date":"1967-01-01T00:00:00+00:00","end_date":"2024-03-20T00:00:00+00:00","latitude":49.8576,"longitude":12.3542,"height":501.0,"name":"Tirschenreuth-Lodermühl","state":"Bayern"},{"station_id":"05064","start_date":"2004-12-01T00:00:00+00:00","end_date":"2024-03-20T00:00:00+00:00","latitude":51.2897,"longitude":6.4437,"height":37.0,"name":"Tönisvorst","state":"Nordrhein-Westfalen"},{"station_id":"05097","start_date":"1991-01-01T00:00:00+00:00","end_date":"2024-03-20T00:00:00+00:00","latitude":54.0654,"longitude":12.7655,"height":10.0,"name":"Tribsees","state":"Mecklenburg-Vorpommern"},{"station_id":"05099","start_date":"1907-05-01T00:00:00+00:00","end_date":"2024-03-20T00:00:00+00:00","latitude":49.7326,"longitude":6.6131,"height":132.0,"name":"Trier-Zewen","state":"Rheinland-Pfalz"},{"station_id":"05100","start_date":"1937-01-01T00:00:00+00:00","end_date":"2024-03-20T00:00:00+00:00","latitude":49.7479,"longitude":6.6583,"height":261.0,"name":"Trier-Petrisberg","state":"Rheinland-Pfalz"},{"station_id":"05109","start_date":"2000-07-01T00:00:00+00:00","end_date":"2024-03-20T00:00:00+00:00","latitude":53.5998,"longitude":13.3039,"height":68.0,"name":"Trollenhagen","state":"Mecklenburg-Vorpommern"},{"station_id":"05111","start_date":"1945-01-01T00:00:00+00:00","end_date":"2024-03-20T00:00:00+00:00","latitude":48.0311,"longitude":12.5396,"height":560.0,"name":"Trostberg","state":"Bayern"},{"station_id":"05133","start_date":"1998-06-01T00:00:00+00:00","end_date":"2024-03-20T00:00:00+00:00","latitude":51.3344,"longitude":8.9132,"height":295.0,"name":"Twistetal-Mühlhausen","state":"Hessen"},{"station_id":"05142","start_date":"1936-09-01T00:00:00+00:00","end_date":"2024-03-20T00:00:00+00:00","latitude":53.7445,"longitude":14.0698,"height":1.0,"name":"Ueckermünde","state":"Mecklenburg-Vorpommern"},{"station_id":"05146","start_date":"1951-01-01T00:00:00+00:00","end_date":"2024-03-20T00:00:00+00:00","latitude":52.9414,"longitude":10.5289,"height":50.0,"name":"Uelzen","state":"Niedersachsen"},{"station_id":"05149","start_date":"1951-03-01T00:00:00+00:00","end_date":"2022-10-04T00:00:00+00:00","latitude":49.5679,"longitude":10.1969,"height":318.0,"name":"Gollhofen","state":"Bayern"},{"station_id":"05158","start_date":"1987-12-01T00:00:00+00:00","end_date":"2024-03-20T00:00:00+00:00","latitude":52.1601,"longitude":11.1759,"height":159.0,"name":"Ummendorf","state":"Sachsen-Anhalt"},{"station_id":"05229","start_date":"1947-01-01T00:00:00+00:00","end_date":"2024-03-20T00:00:00+00:00","latitude":48.0453,"longitude":8.4608,"height":719.0,"name":"Villingen-Schwenningen","state":"Baden-Württemberg"},{"station_id":"05275","start_date":"1985-10-01T00:00:00+00:00","end_date":"2024-03-20T00:00:00+00:00","latitude":49.2445,"longitude":8.5374,"height":105.0,"name":"Waghäusel-Kirrlach","state":"Baden-Württemberg"},{"station_id":"05279","start_date":"1951-01-01T00:00:00+00:00","end_date":"2024-03-20T00:00:00+00:00","latitude":51.6194,"longitude":9.5749,"height":176.0,"name":"Wesertal-Lippoldsberg","state":"Hessen"},{"station_id":"05280","start_date":"1981-04-01T00:00:00+00:00","end_date":"2024-03-20T00:00:00+00:00","latitude":53.9224,"longitude":10.2267,"height":33.0,"name":"Wittenborn","state":"Schleswig-Holstein"},{"station_id":"05300","start_date":"1951-01-01T00:00:00+00:00","end_date":"2024-03-20T00:00:00+00:00","latitude":50.2596,"longitude":8.3607,"height":380.0,"name":"Waldems-Reinborn","state":"Hessen"},{"station_id":"05335","start_date":"1945-01-01T00:00:00+00:00","end_date":"2024-03-20T00:00:00+00:00","latitude":50.8963,"longitude":10.5483,"height":352.0,"name":"Waltershausen","state":"Thüringen"},{"station_id":"05347","start_date":"1998-01-01T00:00:00+00:00","end_date":"2024-03-20T00:00:00+00:00","latitude":51.5039,"longitude":9.1118,"height":236.0,"name":"Warburg","state":"Nordrhein-Westfalen"},{"station_id":"05349","start_date":"1889-07-01T00:00:00+00:00","end_date":"2024-03-20T00:00:00+00:00","latitude":53.5196,"longitude":12.6654,"height":73.0,"name":"Waren (Müritz)","state":"Mecklenburg-Vorpommern"},{"station_id":"05371","start_date":"1923-08-01T00:00:00+00:00","end_date":"2024-03-20T00:00:00+00:00","latitude":50.4973,"longitude":9.9427,"height":920.0,"name":"Wasserkuppe","state":"Hessen"},{"station_id":"05397","start_date":"1947-01-01T00:00:00+00:00","end_date":"2024-03-20T00:00:00+00:00","latitude":49.6662,"longitude":12.1844,"height":440.0,"name":"Weiden","state":"Bayern"},{"station_id":"05404","start_date":"1936-07-01T00:00:00+00:00","end_date":"2024-03-20T00:00:00+00:00","latitude":48.4024,"longitude":11.6946,"height":477.0,"name":"Weihenstephan-Dürnast","state":"Bayern"},{"station_id":"05424","start_date":"1949-03-01T00:00:00+00:00","end_date":"2024-03-20T00:00:00+00:00","latitude":51.0177,"longitude":11.3544,"height":328.0,"name":"Weimar-Schöndorf","state":"Thüringen"},{"station_id":"05426","start_date":"1953-01-01T00:00:00+00:00","end_date":"2024-03-20T00:00:00+00:00","latitude":49.3758,"longitude":8.1212,"height":553.0,"name":"Weinbiet","state":"Rheinland-Pfalz"},{"station_id":"05433","start_date":"1957-01-01T00:00:00+00:00","end_date":"2024-03-20T00:00:00+00:00","latitude":49.5534,"longitude":6.812,"height":380.0,"name":"Weiskirchen/Saar","state":"Saarland"},{"station_id":"05440","start_date":"1879-01-01T00:00:00+00:00","end_date":"2024-03-20T00:00:00+00:00","latitude":49.0115,"longitude":10.9308,"height":439.0,"name":"Weißenburg-Emetzheim","state":"Bayern"},{"station_id":"05480","start_date":"1975-01-01T00:00:00+00:00","end_date":"2024-03-20T00:00:00+00:00","latitude":51.5763,"longitude":7.8879,"height":85.0,"name":"Werl","state":"Nordrhein-Westfalen"},{"station_id":"05490","start_date":"1947-01-01T00:00:00+00:00","end_date":"2024-03-20T00:00:00+00:00","latitude":51.8454,"longitude":10.7686,"height":233.0,"name":"Wernigerode","state":"Sachsen-Anhalt"},{"station_id":"05516","start_date":"1948-01-01T00:00:00+00:00","end_date":"2024-03-20T00:00:00+00:00","latitude":54.5283,"longitude":11.0606,"height":3.0,"name":"Fehmarn","state":"Schleswig-Holstein"},{"station_id":"05538","start_date":"1999-02-01T00:00:00+00:00","end_date":"2024-03-20T00:00:00+00:00","latitude":47.8827,"longitude":11.1576,"height":551.0,"name":"Wielenbach (Demollstr.)","state":"Bayern"},{"station_id":"05541","start_date":"1987-06-01T00:00:00+00:00","end_date":"2024-03-20T00:00:00+00:00","latitude":50.1321,"longitude":8.3169,"height":263.0,"name":"Wiesbaden-Auringen","state":"Hessen"},{"station_id":"05546","start_date":"1967-04-01T00:00:00+00:00","end_date":"2024-03-20T00:00:00+00:00","latitude":52.1206,"longitude":12.4586,"height":187.0,"name":"Wiesenburg","state":"Brandenburg"},{"station_id":"05562","start_date":"1995-04-01T00:00:00+00:00","end_date":"2024-03-20T00:00:00+00:00","latitude":48.6516,"longitude":8.6801,"height":571.0,"name":"Neubulach-Oberhaugstett","state":"Baden-Württemberg"},{"station_id":"05629","start_date":"1937-01-01T00:00:00+00:00","end_date":"2024-03-20T00:00:00+00:00","latitude":51.8891,"longitude":12.6446,"height":105.0,"name":"Wittenberg","state":"Sachsen-Anhalt"},{"station_id":"05640","start_date":"1969-01-01T00:00:00+00:00","end_date":"2024-03-20T00:00:00+00:00","latitude":53.5503,"longitude":7.6672,"height":10.0,"name":"Wittmundhafen","state":"Niedersachsen"},{"station_id":"05643","start_date":"1994-03-01T00:00:00+00:00","end_date":"2024-03-20T00:00:00+00:00","latitude":53.1864,"longitude":12.4949,"height":68.0,"name":"Wittstock-Rote Mühle","state":"Brandenburg"},{"station_id":"05664","start_date":"1958-01-01T00:00:00+00:00","end_date":"2024-03-20T00:00:00+00:00","latitude":48.2953,"longitude":8.2391,"height":296.0,"name":"Wolfach","state":"Baden-Württemberg"},{"station_id":"05676","start_date":"1981-04-01T00:00:00+00:00","end_date":"2024-01-02T00:00:00+00:00","latitude":52.3962,"longitude":10.6892,"height":82.0,"name":"Wolfsburg (Südwest)","state":"Niedersachsen"},{"station_id":"05688","start_date":"2018-11-01T00:00:00+00:00","end_date":"2024-03-20T00:00:00+00:00","latitude":47.7004,"longitude":8.1057,"height":881.0,"name":"Dachsberg-Wolpadingen","state":"Baden-Württemberg"},{"station_id":"05692","start_date":"1936-01-01T00:00:00+00:00","end_date":"2024-03-20T00:00:00+00:00","latitude":49.6051,"longitude":8.3659,"height":88.0,"name":"Worms","state":"Rheinland-Pfalz"},{"station_id":"05705","start_date":"1947-01-01T00:00:00+00:00","end_date":"2024-03-20T00:00:00+00:00","latitude":49.7704,"longitude":9.9576,"height":268.0,"name":"Würzburg","state":"Bayern"},{"station_id":"05715","start_date":"1974-01-01T00:00:00+00:00","end_date":"2024-03-20T00:00:00+00:00","latitude":52.4626,"longitude":9.4245,"height":49.0,"name":"Wunstorf","state":"Niedersachsen"},{"station_id":"05717","start_date":"1937-01-01T00:00:00+00:00","end_date":"2024-03-20T00:00:00+00:00","latitude":51.2256,"longitude":7.1052,"height":134.0,"name":"Wuppertal-Buchenhofen","state":"Nordrhein-Westfalen"},{"station_id":"05731","start_date":"1961-01-01T00:00:00+00:00","end_date":"2024-03-20T00:00:00+00:00","latitude":47.6783,"longitude":8.3801,"height":395.0,"name":"Wutöschingen-Ofteringen","state":"Baden-Württemberg"},{"station_id":"05745","start_date":"1948-07-01T00:00:00+00:00","end_date":"2024-03-20T00:00:00+00:00","latitude":52.9664,"longitude":13.3268,"height":51.0,"name":"Zehdenick","state":"Brandenburg"},{"station_id":"05750","start_date":"1952-09-01T00:00:00+00:00","end_date":"2024-03-20T00:00:00+00:00","latitude":51.0314,"longitude":12.1495,"height":264.0,"name":"Zeitz","state":"Sachsen-Anhalt"},{"station_id":"05779","start_date":"1971-01-01T00:00:00+00:00","end_date":"2024-03-20T00:00:00+00:00","latitude":50.7313,"longitude":13.7516,"height":877.0,"name":"Zinnwald-Georgenfeld","state":"Sachsen"},{"station_id":"05792","start_date":"1900-08-01T00:00:00+00:00","end_date":"2024-03-20T00:00:00+00:00","latitude":47.421,"longitude":10.9848,"height":2956.0,"name":"Zugspitze","state":"Bayern"},{"station_id":"05797","start_date":"1863-12-03T00:00:00+00:00","end_date":"2024-03-20T00:00:00+00:00","latitude":50.6879,"longitude":12.4329,"height":349.0,"name":"Lichtentanne","state":"Sachsen"},{"station_id":"05800","start_date":"1998-01-01T00:00:00+00:00","end_date":"2024-03-20T00:00:00+00:00","latitude":49.028,"longitude":13.2385,"height":615.0,"name":"Zwiesel","state":"Bayern"},{"station_id":"05822","start_date":"1975-10-01T00:00:00+00:00","end_date":"2024-03-20T00:00:00+00:00","latitude":52.863,"longitude":8.6989,"height":42.0,"name":"Bassum","state":"Niedersachsen"},{"station_id":"05825","start_date":"1953-07-01T00:00:00+00:00","end_date":"2024-03-20T00:00:00+00:00","latitude":52.6198,"longitude":12.7867,"height":40.0,"name":"Berge","state":"Brandenburg"},{"station_id":"05839","start_date":"1997-07-01T00:00:00+00:00","end_date":"2024-03-20T00:00:00+00:00","latitude":53.3881,"longitude":7.2287,"height":-0.0,"name":"Emden","state":"Niedersachsen"},{"station_id":"05856","start_date":"1996-12-31T00:00:00+00:00","end_date":"2024-03-20T00:00:00+00:00","latitude":48.5451,"longitude":13.3532,"height":476.0,"name":"Fürstenzell","state":"Bayern"},{"station_id":"05871","start_date":"1998-11-01T00:00:00+00:00","end_date":"2024-03-20T00:00:00+00:00","latitude":49.9463,"longitude":7.2645,"height":497.0,"name":"Hahn","state":"Rheinland-Pfalz"},{"station_id":"05906","start_date":"1936-01-01T00:00:00+00:00","end_date":"2024-03-20T00:00:00+00:00","latitude":49.5063,"longitude":8.5584,"height":98.0,"name":"Mannheim","state":"Baden-Württemberg"},{"station_id":"05930","start_date":"1981-08-01T00:00:00+00:00","end_date":"2024-03-20T00:00:00+00:00","latitude":54.641,"longitude":10.0238,"height":1.0,"name":"Schönhagen (Ostseebad)","state":"Schleswig-Holstein"},{"station_id":"05941","start_date":"1945-01-01T00:00:00+00:00","end_date":"2024-03-20T00:00:00+00:00","latitude":47.6754,"longitude":12.4698,"height":686.0,"name":"Reit im Winkl","state":"Bayern"},{"station_id":"06093","start_date":"1998-02-01T00:00:00+00:00","end_date":"2024-03-20T00:00:00+00:00","latitude":53.2139,"longitude":10.4704,"height":62.0,"name":"Wendisch Evern","state":"Niedersachsen"},{"station_id":"06105","start_date":"1998-06-01T00:00:00+00:00","end_date":"2024-03-20T00:00:00+00:00","latitude":54.3194,"longitude":9.8051,"height":15.0,"name":"Ostenfeld (Rendsburg)","state":"Schleswig-Holstein"},{"station_id":"06109","start_date":"1998-10-01T00:00:00+00:00","end_date":"2024-03-20T00:00:00+00:00","latitude":53.3837,"longitude":14.3728,"height":52.0,"name":"Grambow-Schwennenz","state":"Mecklenburg-Vorpommern"},{"station_id":"06129","start_date":"1999-05-01T00:00:00+00:00","end_date":"2024-03-20T00:00:00+00:00","latitude":51.0594,"longitude":14.4266,"height":291.0,"name":"Sohland/Spree","state":"Sachsen"},{"station_id":"06157","start_date":"1999-02-01T00:00:00+00:00","end_date":"2024-03-20T00:00:00+00:00","latitude":53.6411,"longitude":8.0809,"height":4.0,"name":"Wangerland-Hooksiel","state":"Niedersachsen"},{"station_id":"06158","start_date":"1999-07-01T00:00:00+00:00","end_date":"2024-03-20T00:00:00+00:00","latitude":49.2249,"longitude":10.6085,"height":454.0,"name":"Weidenbach-Weiherschneidbach","state":"Bayern"},{"station_id":"06159","start_date":"1959-03-01T00:00:00+00:00","end_date":"2024-03-20T00:00:00+00:00","latitude":52.9542,"longitude":7.3197,"height":8.0,"name":"Dörpen","state":"Niedersachsen"},{"station_id":"06163","start_date":"1999-10-04T00:00:00+00:00","end_date":"2024-03-20T00:00:00+00:00","latitude":54.1654,"longitude":10.3519,"height":27.0,"name":"Dörnick","state":"Schleswig-Holstein"},{"station_id":"06170","start_date":"2000-02-01T00:00:00+00:00","end_date":"2024-03-20T00:00:00+00:00","latitude":52.0192,"longitude":14.7254,"height":39.0,"name":"Coschen","state":"Brandenburg"},{"station_id":"06197","start_date":"2000-10-11T00:00:00+00:00","end_date":"2024-03-20T00:00:00+00:00","latitude":51.8664,"longitude":9.271,"height":258.0,"name":"Lügde-Paenbruch","state":"Nordrhein-Westfalen"},{"station_id":"06199","start_date":"2000-08-01T00:00:00+00:00","end_date":"2024-03-20T00:00:00+00:00","latitude":54.2484,"longitude":13.0419,"height":17.0,"name":"Steinhagen-Negast","state":"Mecklenburg-Vorpommern"},{"station_id":"06217","start_date":"2001-04-01T00:00:00+00:00","end_date":"2024-03-20T00:00:00+00:00","latitude":49.2406,"longitude":6.9351,"height":190.0,"name":"Saarbrücken-Burbach","state":"Saarland"},{"station_id":"06258","start_date":"2003-01-01T00:00:00+00:00","end_date":"2024-03-20T00:00:00+00:00","latitude":47.6845,"longitude":9.4409,"height":461.0,"name":"Friedrichshafen-Unterraderach","state":"Baden-Württemberg"},{"station_id":"06259","start_date":"2004-06-01T00:00:00+00:00","end_date":"2024-03-20T00:00:00+00:00","latitude":49.021,"longitude":9.6033,"height":524.0,"name":"Großerlach-Mannenweiler","state":"Baden-Württemberg"},{"station_id":"06260","start_date":"2002-12-01T00:00:00+00:00","end_date":"2024-03-20T00:00:00+00:00","latitude":49.3328,"longitude":9.704,"height":385.0,"name":"Ingelfingen-Stachenhausen","state":"Baden-Württemberg"},{"station_id":"06262","start_date":"2002-11-01T00:00:00+00:00","end_date":"2024-03-20T00:00:00+00:00","latitude":48.7695,"longitude":9.8737,"height":412.0,"name":"Schwäbisch Gmünd-Weiler","state":"Baden-Württemberg"},{"station_id":"06263","start_date":"2004-07-01T00:00:00+00:00","end_date":"2024-03-20T00:00:00+00:00","latitude":47.7738,"longitude":8.8219,"height":445.0,"name":"Singen","state":"Baden-Württemberg"},{"station_id":"06264","start_date":"2004-06-01T00:00:00+00:00","end_date":"2024-03-20T00:00:00+00:00","latitude":51.414,"longitude":8.65,"height":457.0,"name":"Brilon-Thülen","state":"Nordrhein-Westfalen"},{"station_id":"06265","start_date":"2004-05-01T00:00:00+00:00","end_date":"2024-03-20T00:00:00+00:00","latitude":52.3613,"longitude":12.3867,"height":36.0,"name":"Wusterwitz","state":"Brandenburg"},{"station_id":"06266","start_date":"2004-09-01T00:00:00+00:00","end_date":"2024-03-20T00:00:00+00:00","latitude":52.0304,"longitude":10.9626,"height":112.0,"name":"Huy-Pabstorf","state":"Sachsen-Anhalt"},{"station_id":"06272","start_date":"2004-10-01T00:00:00+00:00","end_date":"2024-03-20T00:00:00+00:00","latitude":50.8426,"longitude":10.2518,"height":284.0,"name":"Salzungen, Bad-Gräfen-Nitzendorf","state":"Thüringen"},{"station_id":"06273","start_date":"2004-06-01T00:00:00+00:00","end_date":"2024-03-20T00:00:00+00:00","latitude":52.5075,"longitude":11.8551,"height":36.0,"name":"Demker","state":"Sachsen-Anhalt"},{"station_id":"06275","start_date":"2004-07-01T00:00:00+00:00","end_date":"2024-03-20T00:00:00+00:00","latitude":48.6705,"longitude":9.4627,"height":327.0,"name":"Notzingen","state":"Baden-Württemberg"},{"station_id":"06305","start_date":"2004-12-01T00:00:00+00:00","end_date":"2024-03-20T00:00:00+00:00","latitude":51.2061,"longitude":10.4978,"height":193.0,"name":"Mühlhausen/Thüringen-Görmar","state":"Thüringen"},{"station_id":"06310","start_date":"2004-08-01T00:00:00+00:00","end_date":"2024-03-20T00:00:00+00:00","latitude":54.1049,"longitude":13.8239,"height":1.0,"name":"Karlshagen","state":"Mecklenburg-Vorpommern"},{"station_id":"06314","start_date":"1949-02-01T00:00:00+00:00","end_date":"2024-03-20T00:00:00+00:00","latitude":51.0507,"longitude":13.3003,"height":306.0,"name":"Nossen","state":"Sachsen"},{"station_id":"06336","start_date":"2005-11-01T00:00:00+00:00","end_date":"2024-03-20T00:00:00+00:00","latitude":50.0132,"longitude":9.654,"height":288.0,"name":"Lohr/Main-Halsbach","state":"Bayern"},{"station_id":"06337","start_date":"2004-08-01T00:00:00+00:00","end_date":"2024-03-20T00:00:00+00:00","latitude":51.7663,"longitude":7.5194,"height":59.0,"name":"Lüdinghausen-Brochtrup","state":"Nordrhein-Westfalen"},{"station_id":"06344","start_date":"2004-12-01T00:00:00+00:00","end_date":"2024-03-20T00:00:00+00:00","latitude":50.394,"longitude":8.1423,"height":168.0,"name":"Runkel-Ennerich","state":"Hessen"},{"station_id":"06346","start_date":"2005-02-01T00:00:00+00:00","end_date":"2024-03-20T00:00:00+00:00","latitude":48.207,"longitude":11.2035,"height":531.0,"name":"Maisach-Galgen","state":"Bayern"},{"station_id":"06347","start_date":"2005-03-01T00:00:00+00:00","end_date":"2024-03-20T00:00:00+00:00","latitude":50.0579,"longitude":10.2972,"height":305.0,"name":"Schonungen-Mainberg","state":"Bayern"},{"station_id":"07075","start_date":"2005-02-01T00:00:00+00:00","end_date":"2024-03-20T00:00:00+00:00","latitude":48.702,"longitude":11.8493,"height":429.0,"name":"Elsendorf-Horneck","state":"Bayern"},{"station_id":"07099","start_date":"2004-11-01T00:00:00+00:00","end_date":"2021-10-04T00:00:00+00:00","latitude":52.0111,"longitude":10.3966,"height":187.0,"name":"Liebenburg-Othfresen","state":"Niedersachsen"},{"station_id":"07105","start_date":"2005-06-01T00:00:00+00:00","end_date":"2024-03-20T00:00:00+00:00","latitude":47.835,"longitude":12.6548,"height":719.0,"name":"Siegsdorf-Höll","state":"Bayern"},{"station_id":"07106","start_date":"2006-09-01T00:00:00+00:00","end_date":"2024-03-20T00:00:00+00:00","latitude":52.0714,"longitude":8.4565,"height":105.0,"name":"Bielefeld-Deppendorf","state":"Nordrhein-Westfalen"},{"station_id":"07187","start_date":"2004-12-01T00:00:00+00:00","end_date":"2024-03-20T00:00:00+00:00","latitude":49.7636,"longitude":9.4063,"height":194.0,"name":"Freudenberg/Main-Boxtal","state":"Baden-Württemberg"},{"station_id":"07298","start_date":"2005-07-01T00:00:00+00:00","end_date":"2024-03-20T00:00:00+00:00","latitude":54.5268,"longitude":9.0425,"height":4.0,"name":"Hattstedt","state":"Schleswig-Holstein"},{"station_id":"07319","start_date":"2005-03-01T00:00:00+00:00","end_date":"2024-03-20T00:00:00+00:00","latitude":48.7374,"longitude":10.7393,"height":435.0,"name":"Donauwörth-Osterweiler","state":"Bayern"},{"station_id":"07321","start_date":"2005-09-01T00:00:00+00:00","end_date":"2024-03-20T00:00:00+00:00","latitude":51.1507,"longitude":11.3321,"height":160.0,"name":"Olbersleben","state":"Thüringen"},{"station_id":"07329","start_date":"2005-11-01T00:00:00+00:00","end_date":"2024-03-20T00:00:00+00:00","latitude":50.5467,"longitude":12.2863,"height":465.0,"name":"Treuen","state":"Sachsen"},{"station_id":"07330","start_date":"2005-10-01T00:00:00+00:00","end_date":"2024-03-20T00:00:00+00:00","latitude":51.4633,"longitude":7.978,"height":159.0,"name":"Arnsberg-Neheim","state":"Nordrhein-Westfalen"},{"station_id":"07331","start_date":"2005-09-01T00:00:00+00:00","end_date":"2024-03-20T00:00:00+00:00","latitude":48.6099,"longitude":10.2674,"height":467.0,"name":"Hermaringen-Allewind","state":"Baden-Württemberg"},{"station_id":"07341","start_date":"2005-07-15T00:00:00+00:00","end_date":"2024-03-20T00:00:00+00:00","latitude":50.09,"longitude":8.7862,"height":119.0,"name":"Offenbach-Wetterpark","state":"Hessen"},{"station_id":"07343","start_date":"2006-04-01T00:00:00+00:00","end_date":"2024-03-20T00:00:00+00:00","latitude":50.62,"longitude":13.4817,"height":689.0,"name":"Deutschneudorf-Brüderwiese","state":"Sachsen"},{"station_id":"07350","start_date":"2006-08-01T00:00:00+00:00","end_date":"2024-03-20T00:00:00+00:00","latitude":49.1088,"longitude":12.8231,"height":585.0,"name":"Prackenbach-Neuhäusl","state":"Bayern"},{"station_id":"07351","start_date":"2005-09-08T00:00:00+00:00","end_date":"2024-03-20T00:00:00+00:00","latitude":53.3176,"longitude":13.4175,"height":115.0,"name":"Feldberg/Mecklenburg","state":"Mecklenburg-Vorpommern"},{"station_id":"07364","start_date":"2007-01-01T00:00:00+00:00","end_date":"2024-03-20T00:00:00+00:00","latitude":51.6818,"longitude":12.3053,"height":74.0,"name":"Jeßnitz","state":"Sachsen-Anhalt"},{"station_id":"07367","start_date":"2007-12-01T00:00:00+00:00","end_date":"2024-03-20T00:00:00+00:00","latitude":51.9643,"longitude":9.8072,"height":144.0,"name":"Alfeld","state":"Niedersachsen"},{"station_id":"07368","start_date":"2007-11-01T00:00:00+00:00","end_date":"2024-03-20T00:00:00+00:00","latitude":51.0007,"longitude":10.3621,"height":312.0,"name":"Eisenach","state":"Thüringen"},{"station_id":"07369","start_date":"2007-11-01T00:00:00+00:00","end_date":"2024-03-20T00:00:00+00:00","latitude":49.1623,"longitude":10.3661,"height":475.0,"name":"Feuchtwangen-Heilbronn","state":"Bayern"},{"station_id":"07370","start_date":"2006-12-11T00:00:00+00:00","end_date":"2024-03-20T00:00:00+00:00","latitude":49.391,"longitude":12.6838,"height":499.0,"name":"Waldmünchen","state":"Bayern"},{"station_id":"07373","start_date":"2006-03-01T00:00:00+00:00","end_date":"2024-03-20T00:00:00+00:00","latitude":53.5984,"longitude":6.7024,"height":3.0,"name":"Borkum-Flugplatz","state":"Niedersachsen"},{"station_id":"07374","start_date":"2006-03-01T00:00:00+00:00","end_date":"2024-03-20T00:00:00+00:00","latitude":52.0813,"longitude":6.9409,"height":46.0,"name":"Ahaus","state":"Nordrhein-Westfalen"},{"station_id":"07389","start_date":"2006-12-01T00:00:00+00:00","end_date":"2024-03-20T00:00:00+00:00","latitude":52.7461,"longitude":13.8427,"height":83.0,"name":"Heckelberg","state":"Brandenburg"},{"station_id":"07393","start_date":"2010-01-01T00:00:00+00:00","end_date":"2024-03-20T00:00:00+00:00","latitude":51.4492,"longitude":14.2533,"height":116.0,"name":"Hoyerswerda","state":"Sachsen"},{"station_id":"07394","start_date":"2006-06-01T00:00:00+00:00","end_date":"2024-03-20T00:00:00+00:00","latitude":50.0315,"longitude":11.9745,"height":622.0,"name":"Wunsiedel-Schönbrunn","state":"Bayern"},{"station_id":"07395","start_date":"2007-12-01T00:00:00+00:00","end_date":"2024-03-20T00:00:00+00:00","latitude":48.6595,"longitude":12.5388,"height":351.0,"name":"Gottfrieding","state":"Bayern"},{"station_id":"07396","start_date":"2008-05-01T00:00:00+00:00","end_date":"2024-03-20T00:00:00+00:00","latitude":50.5084,"longitude":9.2246,"height":740.0,"name":"Hoherodskopf/Vogelsberg","state":"Hessen"},{"station_id":"07403","start_date":"2007-03-30T00:00:00+00:00","end_date":"2024-03-20T00:00:00+00:00","latitude":47.7955,"longitude":10.0325,"height":672.0,"name":"Leutkirch-Herlazhofen","state":"Baden-Württemberg"},{"station_id":"07410","start_date":"2011-02-01T00:00:00+00:00","end_date":"2024-03-20T00:00:00+00:00","latitude":50.7513,"longitude":9.0224,"height":350.0,"name":"Neu-Ulrichstein","state":"Hessen"},{"station_id":"07412","start_date":"2006-10-01T00:00:00+00:00","end_date":"2024-03-20T00:00:00+00:00","latitude":50.0083,"longitude":9.4238,"height":340.0,"name":"Neuhütten/Spessart","state":"Bayern"},{"station_id":"07419","start_date":"2006-12-01T00:00:00+00:00","end_date":"2024-03-20T00:00:00+00:00","latitude":50.661,"longitude":12.0756,"height":389.0,"name":"Langenwetzendorf-Göttendorf","state":"Thüringen"},{"station_id":"07420","start_date":"2007-04-01T00:00:00+00:00","end_date":"2024-03-20T00:00:00+00:00","latitude":51.1044,"longitude":11.7112,"height":246.0,"name":"Naumburg/Saale-Kreipitzsch","state":"Sachsen-Anhalt"},{"station_id":"07424","start_date":"2006-12-01T00:00:00+00:00","end_date":"2024-03-20T00:00:00+00:00","latitude":47.7724,"longitude":12.9073,"height":457.0,"name":"Piding","state":"Bayern"},{"station_id":"07427","start_date":"2007-09-01T00:00:00+00:00","end_date":"2024-03-20T00:00:00+00:00","latitude":54.0188,"longitude":9.9255,"height":17.0,"name":"Padenstedt (Pony-Park)","state":"Schleswig-Holstein"},{"station_id":"07428","start_date":"2007-05-01T00:00:00+00:00","end_date":"2024-03-20T00:00:00+00:00","latitude":50.4167,"longitude":10.8156,"height":397.0,"name":"Veilsdorf","state":"Thüringen"},{"station_id":"07431","start_date":"2007-11-01T00:00:00+00:00","end_date":"2024-03-20T00:00:00+00:00","latitude":48.013,"longitude":11.5524,"height":604.0,"name":"Oberhaching-Laufzorn","state":"Bayern"},{"station_id":"07432","start_date":"2007-05-01T00:00:00+00:00","end_date":"2024-03-20T00:00:00+00:00","latitude":52.6423,"longitude":10.6628,"height":71.0,"name":"Wittingen-Vorhop","state":"Niedersachsen"},{"station_id":"13670","start_date":"2007-06-01T00:00:00+00:00","end_date":"2024-03-20T00:00:00+00:00","latitude":51.5088,"longitude":6.7018,"height":24.0,"name":"Duisburg-Baerl","state":"Nordrhein-Westfalen"},{"station_id":"13674","start_date":"2007-08-01T00:00:00+00:00","end_date":"2024-03-20T00:00:00+00:00","latitude":49.2943,"longitude":8.9053,"height":237.0,"name":"Waibstadt","state":"Baden-Württemberg"},{"station_id":"13675","start_date":"2007-11-01T00:00:00+00:00","end_date":"2024-03-20T00:00:00+00:00","latitude":52.0818,"longitude":9.4077,"height":75.0,"name":"Hameln-Hastenbeck","state":"Niedersachsen"},{"station_id":"13696","start_date":"2007-12-01T00:00:00+00:00","end_date":"2024-03-20T00:00:00+00:00","latitude":51.5966,"longitude":7.4048,"height":60.0,"name":"Waltrop-Abdinghof","state":"Nordrhein-Westfalen"},{"station_id":"13700","start_date":"2008-05-01T00:00:00+00:00","end_date":"2024-03-20T00:00:00+00:00","latitude":51.3329,"longitude":7.3412,"height":203.0,"name":"Gevelsberg-Oberbröking","state":"Nordrhein-Westfalen"},{"station_id":"13710","start_date":"2008-04-01T00:00:00+00:00","end_date":"2024-03-20T00:00:00+00:00","latitude":48.5734,"longitude":12.2576,"height":490.0,"name":"Landshut-Reithof","state":"Bayern"},{"station_id":"13711","start_date":"2007-12-01T00:00:00+00:00","end_date":"2024-03-20T00:00:00+00:00","latitude":50.682,"longitude":11.515,"height":289.0,"name":"Krölpa-Rockendorf","state":"Thüringen"},{"station_id":"13713","start_date":"2007-11-01T00:00:00+00:00","end_date":"2024-03-20T00:00:00+00:00","latitude":51.0899,"longitude":7.6289,"height":386.0,"name":"Meinerzhagen-Redlendorf","state":"Nordrhein-Westfalen"},{"station_id":"13777","start_date":"2008-06-01T00:00:00+00:00","end_date":"2024-03-20T00:00:00+00:00","latitude":52.2467,"longitude":10.9592,"height":109.0,"name":"Helmstedt-Emmerstedt","state":"Niedersachsen"},{"station_id":"13965","start_date":"2008-12-01T00:00:00+00:00","end_date":"2024-03-20T00:00:00+00:00","latitude":48.2639,"longitude":8.8134,"height":619.0,"name":"Balingen-Bronnhaupten","state":"Baden-Württemberg"},{"station_id":"15000","start_date":"2011-04-01T00:00:00+00:00","end_date":"2024-03-20T00:00:00+00:00","latitude":50.7983,"longitude":6.0244,"height":231.0,"name":"Aachen-Orsbach","state":"Nordrhein-Westfalen"},{"station_id":"15207","start_date":"2013-11-01T00:00:00+00:00","end_date":"2024-03-20T00:00:00+00:00","latitude":51.2835,"longitude":9.359,"height":317.0,"name":"Schauenburg-Elgershausen","state":"Hessen"},{"station_id":"15444","start_date":"2014-09-01T00:00:00+00:00","end_date":"2024-03-20T00:00:00+00:00","latitude":48.4418,"longitude":9.9216,"height":593.0,"name":"Ulm-Mähringen","state":"Baden-Württemberg"},{"station_id":"15555","start_date":"2016-05-01T00:00:00+00:00","end_date":"2024-03-20T00:00:00+00:00","latitude":47.8761,"longitude":10.5849,"height":815.0,"name":"Kaufbeuren-Oberbeuren","state":"Bayern"},{"station_id":"15813","start_date":"2022-03-01T00:00:00+00:00","end_date":"2024-03-20T00:00:00+00:00","latitude":52.5126,"longitude":7.4131,"height":40.0,"name":"Lingen-Baccum","state":"Niedersachsen"},{"station_id":"19171","start_date":"2020-09-01T00:00:00+00:00","end_date":"2024-03-20T00:00:00+00:00","latitude":54.0039,"longitude":9.8555,"height":13.0,"name":"Hasenkrug-Hardebek","state":"Schleswig-Holstein"},{"station_id":"19172","start_date":"2020-09-01T00:00:00+00:00","end_date":"2024-03-20T00:00:00+00:00","latitude":54.0246,"longitude":9.388,"height":48.0,"name":"Wacken","state":"Schleswig-Holstein"},{"station_id":"19207","start_date":"2023-04-01T00:00:00+00:00","end_date":"2024-03-20T00:00:00+00:00","latitude":53.8178,"longitude":12.0645,"height":16.0,"name":"Gülzow-Prüzen","state":"Mecklenburg-Vorpommern"}]